ID,Ordinal by runoff (prefer pre-dam),LATITUDE,LONGITUDE,RiverName,Country,Ocean,"Area, 10^3 km^2","Area, km^2",Length,Max_Elev,Elev_cat,Climate_T,Climate_R,Climate_S,Climate_Cd,Q_preferPredam (km^3/yr),Q_preferPredam (m^3/s),Q,PreDam_Q,Runoff,Runoff_preferPredam,TSS,PD_TSS,SedYield,SedConc,TDS,PD_TDS,DisYield,DisConc,"Arid Q (m^3/s), prefer predam","Subarid Q (m^3/s), prefer predam","Humid Q (m^3/s), prefer predam","Wet Q (m^3/s), prefer predam",VARIABLES FOR AREA PREDCITION and other metrics,COEFFICIENTS,Predicted  area using M&S2007,Error using M&S2007,,Predicted using this method,Error using this method,,,,,,,,,,,,,,,,,,,,,,,,,,,,,,,,,,,,,,,,,,,
132,1,-22.93995000,14.51770000,Kuiseb,Namibia,Atlantic,17.00,17000.00,560,1500,Mountain,STr,A,D,STr-A-D,0.001,0.0316887646,0.00,,0.06,0.06,,,,,,,,,0.0316887646,,,,n,1255,0.3406473825,2.00380813236644E-005,,49.5066030801,0.0029121531,,,,,,,,,,,,,,,,,,,,,,,,,,,,,,,,,,,,,,,,,,,v
135,2,-21.18612000,13.62603000,Ugab,Namibia,Atlantic,33.00,33000.00,470,1500,Mountain,STr,A,D,STr-A-D,0.01,0.316887646,0.01,,0.30,0.30,,,,,,,,,0.316887646,,,,,,6.0576622639,0.0001835655,,431.649737625,0.0130802951,,,,,Appendix A2 - To calculate new coefficient k and exponent a,,,,,,,,,,,,,,,,,,,,,,,,,,,,,,,,,,,,,,
129,3,-19.49673000,12.73844000,Hoanib,Namibia,Atlantic,18.00,18000.00,250,>1500,Mountain,STr,A,D,STr-A-D,0.01,0.316887646,0.01,,0.56,0.56,,,,,,,,,0.316887646,,,,Data points from Syvitski and Milliman 2007,,6.0576622639,0.0003365368,,431.649737625,0.023980541,,,,,,,,,,,,,,,,,,,,,,,,,,,,,,,,,,,,,,,,,,,
561,4,20.57966000,39.59273000,Wadi Sadiyah,Saudi Arabia,Red Sea,1.40,1400.00,110,,,STr,A,D,STr-A-D,0.001,0.0316887646,0.00,,0.71,0.71,,,,,,,,,0.0316887646,,,,k,0.075,0.3406473825,0.0002433196,,49.5066030801,0.0353618593,,,,,,,,,,,,,,,,,,,,,,,,,,,,,,,,,,,,,,,,,,,
334,5,25.19151000,61.77493000,Dasht,Pakistan,Arabian Sea,36.00,36000.00,420,1600,Mountain,STr,A,S,STr-A-S,0.04,1.267550584,0.04,,1.11,1.11,,,,,,,,,1.267550584,,,,a,0.8,34.2673125194,0.0009518698,,1589.8269324077,0.0441618592,,,,,,,,,,,,,,,,,,,,,,,,,,,,,,,,,,,,,,,,,,,
174,6,-30.26719000,17.26219000,Swartlinjies,South Africa,Atlantic,1.70,1700.00,80,680,Upland,STr,A,D,STr-A-D,0.002,0.0633775292,0.00,,1.18,1.18,,,,,,,,,0.0633775292,,,,,,0.810200582,0.0004765886,,95.010655046,0.0558886206,,,,,,,,,,,,,,,,,,,,,,,,,,,,,,,,,,,,,,,,,,,
133,7,-22.09580000,14.26315000,Omaruru,Namibia,Atlantic,14.00,14000.00,,>500,Upland,STr,A,D,STr-A-D,0.02,0.633775292,0.02,,1.43,1.43,,,,,,,,,0.633775292,,,,Constant to calculate discharge,,14.407630129,0.0010291164,,828.4010974419,0.059171507,,,,,,,,,,,,,,,,,,,,,,,,,,,,,,,,,,,,,,,,,,,
165,8,-28.98111000,16.71684000,Holgat,South Africa,Atlantic,1.60,1600.00,100,1300,Mountain,STr,A,D,STr-A-D,0.003,0.0950662938,0.00,,1.88,1.88,,,,,,,,,0.0950662938,,,,km^3/yr to m^3/s,31.6887646,1.3449515031,0.0008405947,,139.1171169297,0.0869481981,,,,,,,,,,,,,,,,,,,,,,,,,,,,,,,,,,,,,,,,,,,
173,9,-30.47471000,17.36006000,Spoeg,South Africa,Atlantic,1.60,1600.00,110,1100,Mountain,STr,A,D,STr-A-D,0.003,0.0950662938,0.00,,1.88,1.88,,,,,,,,,0.0950662938,,,,,,1.3449515031,0.0008405947,,139.1171169297,0.0869481981,,,,,,,,,,,,,,,,,,,,,,,,,,,,,,,,,,,,,,,,,,,
557,10,17.56964000,42.15955000,Wadi Itwad,Saudi Arabia,Red Sea,1.50,1500.00,60,2000,Mountain,STr,A,D,STr-A-D,0.003,0.0950662938,0.00,,2.00,2.00,,,,,,,,,0.0950662938,,,,Values calculated in regression - A2,,1.3449515031,0.0008966343,,139.1171169297,0.0927447446,,,,,,,,,,,,,,,,,,,,,,,,,,,,,,,,,,,,,,,,,,,
1171,11,-27.75580000,113.90970000,Murchison,Australia,Indian,82.00,82000.00,780,>500,Upland,STr,A,S,STr-A-S,0.2,6.33775292,0.20,,2.44,2.44,,,,,,,,,6.33775292,,,,Arid k,0.0005,256.207920058,0.0031244868,,7222.8570354602,0.0880836224,,,,,,,,,,,,,,,,,,,,,,,,,,,,,,,,,,,,,,,,,,,
546,12,31.46688000,34.38138000,Besor,Israel,Mediterranean,3.70,3700.00,110,>500,Upland,STr,A,W,STr-A-W,0.01,0.316887646,0.01,,2.70,2.70,,,,,,,,,0.316887646,,,,Arid a,1.0633,6.0576622639,0.001637206,,431.649737625,0.1166620913,,,,,,,,,,,,,,,,,,,,,,,,,,,,,,,,,,,,,,,,,,,
141,13,12.55000000,-16.78300000,Casamance,Senegal,Atlantic,37.00,37000.00,320,57,Coastal Plain,Tr,A,S,Tr-A-S,0.1,3.16887646,0.10,,2.70,2.70,,,,,,,,,3.16887646,,,,Arid r^2,0.7205,107.7221607682,0.0029114098,,3763.5685827638,0.1017180698,,,,,,,,,,,,,,,,,,,,,,,,,,,,,,,,,,,,,,,,,,,
1429,14,-21.42497400,-70.10210000,Loa,Chile,Pacific,33.00,33000.00,440,4300,High Mountain,Str,A,W,Str-A-W,0.1,3.16887646,0.10,,3.03,3.03,,,,,,,,,3.16887646,,,,Subarid k,0.0063,107.7221607682,0.0032643079,,3763.5685827638,0.1140475328,,,,,,,,,,,,,,,,,,,,,,,,,,,,,,,,,,,,,,,,,,,
800,15,36.83408700,-2.40452800,Andarax,Spain,Mediterranean,2.20,2200.00,74,2500,Mountain,Te,A,W,Te-A-W,0.01,0.316887646,0.01,,4.55,4.55,0.18,,0.08,18000.00,,,,,0.316887646,,,,Subarid a,0.9824,6.0576622639,0.0027534828,,431.649737625,0.1962044262,,,,,,,,,,,,,,,,,,,,,,,,,,,,,,,,,,,,,,,,,,,
1145,16,-20.82680000,116.05740000,Fortescue,Australia,Indian,49.00,49000.00,690,1000,Mountain,STr,SA,S,STr-SA-S,0.23,7.288415858,0.23,,4.69,4.69,,,,,,,,,7.288415858,,,,Subarid r^2,0.9802,305.1159079645,0.0062268553,,8237.4618594484,0.1681114665,,,,,,,,,,,,,,,,,,,,,,,,,,,,,,,,,,,,,,,,,,,
587,17,16.20316000,52.25857000,Wadi al Jiza,Yemen,Arabian Sea,19.00,19000.00,260,>1000,Mountain,STr,A,D,STr-A-D,0.1,3.16887646,0.10,,5.26,5.26,,,,,,,,,3.16887646,,,,Humid k,0.0161,107.7221607682,0.0056695874,,3763.5685827638,0.198082557,,,,,,,,,,,,,,,,,,,,,,,,,,,,,,,,,,,,,,,,,,,
157,18,-29.67974000,17.04919000,Buffels,South Africa,Atlantic,9.70,9700.00,260,1500,Mountain,STr,A,D,STr-A-D,0.053,1.6795045238,0.05,,5.46,5.46,,,,,,,,,1.6795045238,,,,Humid a,0.9839,48.7135627065,0.0050220168,,2071.5242212365,0.2135591981,,,,,,,,,,,,,,,,,,,,,,,,,,,,,,,,,,,,,,,,,,,
1090,19,34.96621000,-120.64076000,Santa Maria,USA,Pacific,4.50,4500.00,,2500,Mountain,STr,A,W,STr-A-W,0.026,0.8239078796,0.03,,5.78,5.78,0.93,,0.21,35769.23,,,,,0.8239078796,,,,Humid r^2,0.9612,19.9996198706,0.00444436,,1060.2316935545,0.235607043,,,,,,,,,,,,,,,,,,,,,,,,,,,,,,,,,,,,,,,,,,,
978,20,28.78761000,-111.85543000,Sonora,Mexico,Gulf of California,29.00,29000.00,375,2600,Mountain,Tr,A,S,Tr-A-S,0.17,5.387089982,0.17,,5.86,5.86,,,,,,,,,5.387089982,,,,Wet k,0.0873,209.1058620445,0.007210547,,6199.1158430313,0.2137626153,,,,,,,,,,,,,,,,,,,,,,,,,,,,,,,,,,,,,,,,,,,
935,21,28.83551000,-111.97278000,Bacavachio,Mexico,Pacific,6.80,6800.00,150,2100,Mountain,Tr,A,S,Tr-A-S,0.04,1.267550584,0.04,,5.88,5.88,,,,,,,,,1.267550584,,,,Wet k,0.9164,34.2673125194,0.0050393107,,1589.8269324077,0.2337980783,,,,,,,,,,,,,,,,,,,,,,,,,,,,,,,,,,,,,,,,,,,
589,22,14.04516000,48.67969000,Wadi Hajir,Yemen,Arabian Sea,8.30,8300.00,170,>1000,Mountain,STr,A,D,STr-A-D,0.05,1.58443823,0.05,,6.02,6.02,,,,,,,,,1.58443823,,,,Wet r^2,0.099,45.2915894167,0.005456818,,1961.058955982,0.2362721634,,,,,,,,,,,,,,,,,,,,,,,,,,,,,,,,,,,,,,,,,,,
97,23,28.69888000,-11.16470000,Draa,Morroco,Atlantic,114.00,114000.00,1100,>1500,Mountain,STr,A,W,STr-A-W,0.8,25.35101168,0.40,0.80,3.51,7.02,14,,0.12,35000.00,,,,,25.35101168,,,,,,1449.3308613336,0.0127134286,,26602.8023255285,0.2333579151,,,,,,,,,,,,,,,,,,,,,,,,,,,,,,,,,,,,,,,,,,,
163,24,-30.85000000,17.56700000,Groen,South Africa,Atlantic,4.70,4700.00,110,1200,Mountain,STr,A,D,STr-A-D,0.034,1.0774179964,0.03,,7.23,7.23,,,,,,,,,1.0774179964,,,,Values for making 1:1-line,,27.9675035912,0.0059505327,,1364.4907099755,0.2903171723,,,,,,,,,,,,,,,,,,,,,,,,,,,,,,,,,,,,,,,,,,,
1189,25,-32.06874000,115.65679000,Swan,Australia,Indian,120.00,120000.00,390,470,Lowland,STr,A,W,STr-A-W,0.88,27.886112848,0.88,,7.33,7.33,,,,,,,,,27.886112848,,,,1,1,1632.7075326147,0.0136058961,,29097.5148058601,0.24247929,,,,,,,,,,,,,,,,,,,,,,,,,,,,,,,,,,,,,,,,,,,
562,26,18.87806000,41.15994000,Wadi Yiba,Saudi Arabia,Red Sea,2.70,2700.00,99,1500,Mountain,STr,A,D,STr-A-D,0.02,0.633775292,0.02,,7.41,7.41,,,,,,,,,0.633775292,,,,10000000000,10000000000,14.407630129,0.0053361593,,828.4010974419,0.3068152213,,,,,,,,,,,,,,,,,,,,,,,,,,,,,,,,,,,,,,,,,,,
1146,27,-24.91060000,113.45800000,Gascoyne,Australia,Indian,79.00,79000.00,760,700,Upland,STr,A,S,STr-A-S,0.6,19.01325876,0.60,,7.59,7.59,,,,,,,,,19.01325876,,,,,,1011.5657565028,0.0128046298,,20296.7479942476,0.2569208607,,,,,,,,,,,,,,,,,,,,,,,,,,,,,,,,,,,,,,,,,,,
953,28,27.96880000,-110.82156000,Guaymas,Mexico,Gulf of California,5.20,5200.00,,1700,Mountain,Tr,A,S,Tr-A-S,0.04,1.267550584,0.04,,7.69,7.69,,,,,,,,,1.267550584,,,,Count,,34.2673125194,0.0065898678,,1589.8269324077,0.3057359485,,,,,,,,,,,,,,,,,,,,,,,,,,,,,,,,,,,,,,,,,,,
336,29,25.34609000,65.63200000,Hingol,Pakistan,Arabian Sea,32.00,32000.00,560,2100,Mountain,STr,A,S,STr-A-S,0.26,8.239078796,0.26,,8.13,8.13,,,,,,,,,8.239078796,,,,Arid,196,355.6491222444,0.0111140351,,9244.1958015935,0.2888811188,,,,,,,,,,,,,,,,,,,,,,,,,,,,,,,,,,,,,,,,,,,
161,30,-33.55670000,27.16588000,Great Fish,South Africa,Indian,30.00,30000.00,640,2500,Mountain,STr,A,D,STr-A-D,0.25,7.92219115,0.25,,8.33,8.33,,,,,,,,,7.92219115,,,,Subarid,249,338.633615169,0.0112877872,,8909.4279310742,0.296980931,,,,,,,,,,,,,,,,,,,,,,,,,,,,,,,,,,,,,,,,,,,
1121,31,-21.55030000,114.96700000,Ashburton,Australia,Indian,71.00,71000.00,800,1000,Mountain,STr,A,S,STr-A-S,0.6,19.01325876,0.60,,8.45,8.45,,,,,,,,,19.01325876,,,,Humid,429,1011.5657565028,0.014247405,,20296.7479942476,0.2858696901,,,,,,,,,,,,,,,,,,,,,,,,,,,,,,,,,,,,,,,,,,,
1082,32,32.96600000,-117.26900000,San Dieguito,USA,Pacific,0.90,900.00,90,1700,Mountain,STr,A,W,STr-A-W,0.008,0.2535101168,0.00,0.01,2.22,8.89,0.015,0.17,0.02,7500.00,,,,,0.2535101168,,,,Wet,381,4.583186605,0.0050924296,,349.9376579932,0.38881962,,,,,,,,,,,,,,,,,,,,,,,,,,,,,,,,,,,,,,,,,,,
1109,33,32.55106000,-117.12431000,Tijuana,USA,Pacific,4.50,4500.00,190,1100,Mountain,STr,A,D,STr-A-D,0.04,1.267550584,0.04,,8.89,8.89,0.47,,0.10,11750.00,,,,,1.267550584,,,,Sum,1255,34.2673125194,0.0076149583,,1589.8269324077,0.3532948739,,,,,,,,,,,,,,,,,,,,,,,,,,,,,,,,,,,,,,,,,,,
591,34,14.02890000,47.93227000,Wadi Maifa'ah,Yemen,Arabian Sea,8.60,8600.00,,>1000,Mountain,STr,A,D,STr-A-D,0.08,2.535101168,0.08,,9.30,9.30,,,,,,,,,2.535101168,,,,,,81.5018637202,0.0094769609,,3051.1182117139,0.3547811874,,,,,,,,,,,,,,,,,,,,,,,,,,,,,,,,,,,,,,,,,,,
194,35,36.76359000,10.29663000,Miliane,Tunisia,Mediterranean,2.00,2000.00,130,>200,Lowland,STr,A,D,STr-A-D,0.02,0.633775292,0.02,,10.00,10.00,0.9,,0.45,45000.00,,,,,0.633775292,,,,Proportion,,14.407630129,0.0072038151,,828.4010974419,0.4142005487,,,,,,,,,,,,,,,,,,,,,,,,,,,,,,,,,,,,,,,,,,,
1364,36,-50.94124000,-69.18845000,Coig,Argentina,Atlantic,15.00,15000.00,250,>500,Upland,Te,SA,Sp,Te-SA-Sp,0.15,4.75331469,0.15,,10.00,10.00,0.02,,0.00,133.33,,,,,4.75331469,,,,Arid,16%,178.8212515098,0.0119214168,,5510.7167753727,0.3673811184,,,,,,,,,,,,,,,,,,,,,,,,,,,,,,,,,,,,,,,,,,,
1366,37,-47.78863000,-65.89749000,Deseado,Argentina,Atlantic,14.00,14000.00,610,>1000,Mountain,Te,A,Sp,Te-A-Sp,0.15,4.75331469,0.15,,10.71,10.71,0.5,,0.04,3333.33,0.05,,0.0035714286, 333.33 ,4.75331469,,,,Subarid,20%,178.8212515098,0.0127729465,,5510.7167753727,0.3936226268,,,,,,,,,,,,,,,,,,,,,,,,,,,,,,,,,,,,,,,,,,,
555,38,27.15564000,35.79554000,Wadi Damā,Saudi Arabia,Red Sea,5.50,5500.00,,1300,Mountain,STr,A,D,STr-A-D,0.06,1.901325876,0.06,,10.91,10.91,,,,,,,,,1.901325876,,,,Humid,34%,56.8845228029,0.0103426405,,2327.8666918631,0.4232484894,,,,,,,,,,,,,,,,,,,,,,,,,,,,,,,,,,,,,,,,,,,
586,39,13.42412000,46.69078000,Wadi Ahwar,Yemen,Arabian Sea,6.40,6400.00,,>560,Upland,STr,A,D,STr-A-D,0.07,2.218213522,0.07,,10.94,10.94,,,,,,,,,2.218213522,,,,Wet,30%,68.9727601997,0.0107769938,,2691.0356009475,0.4204743126,,,,,,,,,,,,,,,,,,,,,,,,,,,,,,,,,,,,,,,,,,,
171,40,-28.62396000,16.46736000,Orange,South Africa,Atlantic,1000.00,1000000.00,2200,3000,High Mountain,STr,A,S,STr-A-S,11,348.5764106,4.50,11.00,4.50,11.00,17,89,0.02,3777.78,2.8,,0.0028, 622.22 ,348.5764106,,,,Sum,100%,38374.7812328524,0.0383747812,,312942.862988365,0.312942863,,,,,,,,,,,,,,,,,,,,,,,,,,,,,,,,,,,,,,,,,,,
590,41,13.13290000,45.46091000,Wadi Hassan,Yemen,Arabian Sea,3.50,3500.00,,<500,Lowland,STr,A,D,STr-A-D,0.04,1.267550584,0.04,,11.43,11.43,,,,,,,,,1.267550584,,,,,,34.2673125194,0.0097906607,,1589.8269324077,0.4542362664,,,,,,,,,,,,,,,,,,,,,,,,,,,,,,,,,,,,,,,,,,,
559,42,22.15715600,39.03149500,Wadi Khulays,Saudi Arabia,Red Sea,5.20,5200.00,,,,STr,A,D,STr-A-D,0.06,1.901325876,0.06,,11.54,11.54,,,,,,,,,1.901325876,,,,Median error S&M07,,56.8845228029,0.0109393313,,2327.8666918631,0.4476666715,,,,,,,,,,,,,,,,,,,,,,,,,,,,,,,,,,,,,,,,,,,
560,43,22.84922000,38.94869000,Wadi Rābigh,Saudi Arabia,Red Sea,5.00,5000.00,,500,Upland,STr,A,D,STr-A-D,0.06,1.901325876,0.06,,12.00,12.00,,,,,,,,,1.901325876,,,,Arid,0.06,56.8845228029,0.0113769046,,2327.8666918631,0.4655733384,,,,,,,,,,,,,,,,,,,,,,,,,,,,,,,,,,,,,,,,,,,
1080,44,32.75435000,-117.25473000,San Diego,USA,Pacific,1.10,1100.00,70,2100,Mountain,STr,A,W,STr-A-W,0.014,0.4436427044,0.01,,12.73,12.73,0.025,0.1,0.02,1785.71,,,,,0.4436427044,,,,Subarid,0.39,9.2249729382,0.008386339,,592.3252881028,0.5384775346,,,,,,,,,,,,,,,,,,,,,,,,,,,,,,,,,,,,,,,,,,,
1384,45,-3.38499000,-39.06768000,Curu,Brazil,Atlantic,7.50,7500.00,,,,Tr,A,S,Tr-A-S,0.1,3.16887646,0.10,,13.33,13.33,,,,,,,,,3.16887646,,,,Humid,1.23,107.7221607682,0.0143629548,,3763.5685827638,0.5018091444,,,,,,,,,,,,,,,,,,,,,,,,,,,,,,,,,,,,,,,,,,,
1424,46,-27.31361000,-70.93468000,Copiapo,Chile,Pacific,5.10,5100.00,170,>3000,High Mountain,Te,A,W,Te-A-W,0.07,2.218213522,0.07,,13.73,13.73,,,,,,,,,2.218213522,,,,Wet,3.91,68.9727601997,0.0135240706,,2691.0356009475,0.5276540394,,,,,,,,,,,,,,,,,,,,,,,,,,,,,,,,,,,,,,,,,,,
125,47,-10.43520000,40.50556000,Rovuma,Mozambique,Indian,160.00,160000.00,640,1600,Mountain,Tr,A,S,Tr-A-S,2.2,69.71528212,2.20,,13.75,13.75,,,,,,,,,69.71528212,,,,,,5132.5525810123,0.0320784536,,68882.0212612673,0.4305126329,,,,,,,,,,,,,,,,,,,,,,,,,,,,,,,,,,,,,,,,,,,
1086,48,33.38532000,-117.59661000,San Mateo,USA,Pacific,0.34,340.00,,>500,Upland,STr,A,W,STr-A-W,0.005,0.158443823,0.01,,14.71,14.71,,,,,,,,,0.158443823,,,,Median error this,,2.5469332413,0.0074909801,,224.9170076755,0.6615206108,,,,,,,,,,,,,,,,,,,,,,,,,,,,,,,,,,,,,,,,,,,
160,49,-34.35192000,21.89744000,Gourtis,South Africa,Indian,45.00,45000.00,310,1500,Mountain,STr,A,D,STr-A-D,0.67,21.231472282,0.67,,14.89,14.89,,,,,,,,,21.231472282,,,,Arid,1.39,1161.1773599627,0.0258039413,,22516.3009034507,0.5003622423,,,,,,,,,,,,,,,,,,,,,,,,,,,,,,,,,,,,,,,,,,,
1136,50,-19.87220000,119.12990000,DeGrey,Australia,Indian,67.00,67000.00,310,700,Upland,STr,A,S,STr-A-S,1,31.6887646,1.00,,14.93,14.93,,,,,,,,,31.6887646,,,,Subarid,1.05,1915.6010049897,0.0285910598,,32814.6810770717,0.4897713594,,,,,,,,,,,,,,,,,,,,,,,,,,,,,,,,,,,,,,,,,,,
1371,51,-35.75177000,-57.35914000,Salado,Argentina,Atlantic,40.00,40000.00,640,>100,Lowland,Te,A,Sp,Te-A-Sp,0.6,19.01325876,0.60,,15.00,15.00,,,,,,,,,19.01325876,,,,Humid,1.04,1011.5657565028,0.0252891439,,20296.7479942476,0.5074186999,,,,,Fig 2a - Actual vs estimated catchment size,,,,,,,,,,,,,Fig 2b - Actual vs estimated catchment size,,,,,,,,,,,,,Fig 2c- Actual vs estimated catchment size,,,,,,,,,,,,
808,52,36.71821100,-3.55319200,Guadalfeo,Spain,Mediterranean,1.30,1300.00,72,3200,High Mountain,Te,SA,W,Te-SA-W,0.02,0.633775292,0.02,,15.38,15.38,0.08,,0.06,4000.00,,,,,0.633775292,,,,Wet,0.93,14.407630129,0.0110827924,,828.4010974419,0.6372316134,,,,,,,,,,,,,,,,,,,,,,,,,,,,,,,,,,,,,,,,,,,
595,53,12.78810000,44.94861000,Wadi Tuban,Yemen,Arabian Sea,6.50,6500.00,,<1000,Upland,STr,A,D,STr-A-D,0.1,3.16887646,0.10,,15.38,15.38,2.8,,0.43,28000.00,,,,,3.16887646,,,,,,107.7221607682,0.0165726401,,3763.5685827638,0.5790105512,,,,,,,,,,,,,,,,,,,,,,,,,,,,,,,,,,,,,,,,,,,
947,54,30.53300000,-113.03300000,Concepción,Mexico,Gulf of California,25.00,25000.00,,>200,Lowland,Tr,A,S,Tr-A-S,0.4,12.67550584,0.40,,16.00,16.00,,,,,,,,,12.67550584,,,,,,609.368562906,0.0243747425,,13861.7545043872,0.5544701802,,,,,,,,,,,,,,,,,,,,,,,,,,,,,,,,,,,,,,,,,,,
553,55,20.15042000,40.24227000,Wadi al Lith,Saudi Arabia,Red Sea,3.00,3000.00,98,,,STr,A,D,STr-A-D,0.05,1.58443823,0.05,,16.67,16.67,,,,,,,,,1.58443823,,,,,,45.2915894167,0.0150971965,,1961.058955982,0.6536863187,,,,,,,,,,,,,,,,,,,,,,,,,,,,,,,,,,,,,,,,,,,
1055,56,27.79793000,-97.28930000,Nueces,USA,Gulf of Mexico,43.00,43000.00,510,730,Upland,STr,A,SP,STr-A-SP,0.72,22.815910512,0.72,,16.74,16.74,0.71,,0.02,986.11,0.18,,0.0041860465, 250.00 ,22.815910512,,,,,,1270.4883198739,0.02954624,,24093.1683694783,0.5603062412,,,,,,,,,,,,,,,,,,,,,,,,,,,,,,,,,,,,,,,,,,,
1500,57,-17.62954000,-71.35620000,Moquegua,Peru,Pacific,3.40,3400.00,120,>4000,High Mountain,STr,A,S,STr-A-S,0.06,1.901325876,0.06,,17.65,17.65,,,,,,,,,1.901325876,,,,,,56.8845228029,0.016730742,,2327.8666918631,0.6846666741,,,,,,,,,,,,,,,,,,,,,,,,,,,,,,,,,,,,,,,,,,,
159,58,-33.98606000,25.02891000,Gamtoos,South Africa,Indian,34.00,34000.00,640,2200,Mountain,STr,A,S,STr-A-S,0.6,19.01325876,0.60,,17.65,17.65,,,,,,,,,19.01325876,,,,,,1011.5657565028,0.029751934,,20296.7479942476,0.5969631763,,,,,,,,,,,,,,,,,,,,,,,,,,,,,,,,,,,,,,,,,,,
1484,59,-18.30935000,-70.44829000,Caplina,Peru,Pacific,2.20,2200.00,110,6400,High Mountain,STr,A,S,STr-A-S,0.04,1.267550584,0.04,,18.18,18.18,,,,,,,,,1.267550584,,,,,,34.2673125194,0.0155760511,,1589.8269324077,0.7226486056,,,,,,,,,,,,,,,,,,,,,,,,,,,,,,,,,,,,,,,,,,,
593,60,15.74640000,42.74382000,Wadi Mawr,Yemen,Red Sea,8.00,8000.00,300,2000,Mountain,STr,A,D,STr-A-D,0.15,4.75331469,0.15,,18.75,18.75,,,,,,,,,4.75331469,,,,,,178.8212515098,0.0223526564,,5510.7167753727,0.6888395969,,,,,,,,,,,,,,,,,,,,,,,,,,,,,,,,,,,,,,,,,,,
106,61,30.34884000,-9.61603000,Souss,Morroco,Atlantic,16.00,16000.00,230,2700,Mountain,STr,A,W,STr-A-W,0.31,9.823517026,0.31,,19.38,19.38,4.2,,0.26,13548.39,0.03,,0.001875, 96.77 ,9.823517026,,,,,,443.1055334756,0.0276940958,,10907.1166418239,0.6816947901,,,,,,,,,,,,,,,,,,,,,,,,,,,,,,,,,,,,,,,,,,,
556,62,18.56933000,41.29251000,Wadi Hali,Saudi Arabia,Red Sea,4.50,4500.00,120,2500,Mountain,STr,A,D,STr-A-D,0.09,2.851988814,0.09,,20.00,20.00,,,,,,,,,2.851988814,,,,z,,94.4296093451,0.0209843576,,3408.5240504003,0.757449789,,,,,,,,,,,,,,,,,,,,,,,,,,,,,,,,,,,,,,,,,,,
123,63,-12.50930000,40.61807000,Montepuez,Mozambique,Indian,9.50,9500.00,320,>500,Upland,Tr,A,S,Tr-A-S,0.19,6.020865274,0.19,,20.00,20.00,,,,,,,,,6.020865274,,,,,,240.2962854312,0.0252943458,,6882.6989606352,0.7244946274,,,,,,,,,,,,,,,,,,,,,,,,,,,,,,,,,,,,,,,,,,,
594,64,14.68768000,42.97529000,Wadi Siham,Yemen,Red Sea,4.90,4900.00,,>1000,Mountain,STr,A,D,STr-A-D,0.1,3.16887646,0.10,,20.41,20.41,2.8,,0.57,28000.00,,,,,3.16887646,,,,,,107.7221607682,0.0219841144,,3763.5685827638,0.768075221,,,,,,,,,,,,,,,,,,,,,,,,,,,,,,,,,,,,,,,,,,,
1071,65,25.98300000,-97.13300000,Rio Grande,USA,Gulf of Mexico,870.00,870000.00,3000,4200,High Mountain,STr,A,SP,STr-A-SP,18,570.3977628,0.70,18.00,0.80,20.69,0.66,20,0.00,942.86,0.57,2.2,0.0006551724, 814.29 ,570.3977628,,,,,,71022.4561964363,0.0816350071,,497292.894002814,0.5716010276,,,,,,,,,,,,,,,,,,,,,,,,,,,,,,,,,,,,,,,,,,,
1426,66,-28.45383000,-71.20572000,Huasco,Chile,Pacific,7.20,7200.00,150,5900,High Mountain,Te,A,W,Te-A-W,0.15,4.75331469,0.15,,20.83,20.83,,,,,,,,,4.75331469,,,,,,178.8212515098,0.0248362849,,5510.7167753727,0.7653773299,,,,,,,,,,,,,,,,,,,,,,,,,,,,,,,,,,,,,,,,,,,
153,67,-0.25000000,42.66700000,Shebelle,Somalia,Indian,810.00,810000.00,1600,>3000,High Mountain,Tr,A,W,Tr-A-W,17,538.7089982,17.00,,20.99,20.99,,,,,5.7,,0.007037037, 335.29 ,538.7089982,,,,,,66125.0796153666,0.0816359008,,471266.380163098,0.5818103459,,,,,,,,,,,,,,,,,,,,,,,,,,,,,,,,,,,,,,,,,,,
1089,68,33.22774000,-117.41649000,Santa Margarita,USA,Pacific,1.90,1900.00,80,2200,Mountain,STr,A,W,STr-A-W,0.04,1.267550584,0.03,0.04,13.16,21.05,0.12,,0.06,4800.00,,,,,1.267550584,,,,,,34.2673125194,0.0180354276,,1589.8269324077,0.8367510171,,,,,,,,,,,,,,,,,,,,,,,,,,,,,,,,,,,,,,,,,,,
719,69,37.39017000,14.95284000,Gornalunga,Italy,Sicilian Channel,0.23,230.00,,600,Upland,Te,A,W,Te-A-W,0.005,0.158443823,0.01,,21.74,21.74,0.03,,0.13,6000.00,,,,,0.158443823,,,,,,2.5469332413,0.0110736228,,224.9170076755,0.9779000334,,,,,,,,,,,,,,,,,,,,,,,,,,,,,,,,,,,,,,,,,,,
170,70,-31.67736000,18.17938000,Olifants,South Africa,Atlantic,55.00,55000.00,285,1500,Mountain,STr,SA,S,STr-SA-S,1.2,38.02651752,1.20,,21.82,21.82,,,,,,,,,38.02651752,,,,,,2405.9223898524,0.0437440435,,38952.5275874091,0.7082277743,,,,,,,,,,,,,,,,,,,,,,,,,,,,,,,,,,,,,,,,,,,
1005,71,28.60000000,-95.95000000,Colorado,USA,Gulf of Mexico,110.00,110000.00,1600,1200,Mountain,STr,A,S,STr-A-S,2.4,76.05303504,2.40,,21.82,21.82,1.4,,0.01,583.33,0.6,,0.0054545455, 250.00 ,76.05303504,,,,,,5722.2800483136,0.0520207277,,74755.7887538384,0.6795980796,,,,,,,,,,,,,,,,,,,,,,,,,,,,,,,,,,,,,,,,,,,
1172,72,-35.78590000,138.99420000,Murray-Darling,Australia,Great Australian Bight,1100.00,1100000.00,3500,>1000,Mountain,Te,A,S,Te-A-S,24,760.5303504,7.90,24.00,7.18,21.82,1,,0.00,126.58,3.6,,0.0032727273, 455.70 ,760.5303504,,,,,,101758.127883927,0.092507389,,651798.23687993,0.5925438517,,,,,,,,,,,,,,,,,,,,,,,,,,,,,,,,,,,,,,,,,,,
339,73,70.85420000,153.67421000,Alazeya,Russia,Siberian Sea,68.00,68000.00,1600,>200,Lowland,Ar,SA,S,Ar-SA-S,1.5,47.5331469,1.50,,22.06,22.06,0.1,0.7,0.00,66.67,0.19,,0.0027941176, 126.67 ,47.5331469,,,,,,3179.9414963727,0.0467638455,,48048.1249413364,0.7065900727,,,,,,,,,,,,,,,,,,,,,,,,,,,,,,,,,,,,,,,,,,,
66,74,-3.15765000,40.14133000,Galana,Kenya,Indian,40.00,40000.00,560,1900,Mountain,Tr,A,S,Tr-A-S,1,31.6887646,1.00,,25.00,25.00,,,,,,,,,31.6887646,,,,,,1915.6010049897,0.0478900251,,32814.6810770717,0.8203670269,,,,,,,,,,,,,,,,,,,,,,,,,,,,,,,,,,,,,,,,,,,
102,75,35.14071000,-2.33076000,Moulouya,Morroco,Mediterranean,51.00,51000.00,450,>1500,Mountain,STr,A,W,STr-A-W,1.3,41.19539398,0.20,1.30,3.92,25.49,0.8,12,0.02,4000.00,,,,,41.19539398,,,,,,2659.0974074529,0.0521391649,,41997.9705473944,0.8234896186,,,,,,,,,,,,,,,,,,,,,,,,,,,,,,,,,,,,,,,,,,,
1059,76,36.80288000,-121.79000000,Pajaro,USA,Pacific,3.10,3100.00,,1700,Mountain,Te,A,W,Te-A-W,0.08,2.535101168,0.08,,25.81,25.81,0.3,,0.10,3750.00,,,,,2.535101168,,,,,,81.5018637202,0.0262909238,,3051.1182117139,0.9842316812,,,,,,,,,,,,,,,,,,,,,,,,,,,,,,,,,,,,,,,,,,,
1425,77,-29.89094000,-71.28651000,Elqui,Chile,Pacific,9.60,9600.00,210,>3000,High Mountain,Te,A,W,Te-A-W,0.25,7.92219115,0.25,,26.04,26.04,,,,,,,,,7.92219115,,,,,,338.633615169,0.0352743349,,8909.4279310742,0.9280654095,,,,,,,,,,,,,,,,,,,,,,,,,,,,,,,,,,,,,,,,,,,
221,78,32.67531500,121.28731300,Majiahe,China,Yellow Sea,8.70,8700.00,,,,Te,A,S/Au,Te-A-S/Au,0.23,7.288415858,0.23,,26.44,26.44,0.07,,0.01,304.35,,,,,7.288415858,,,,,,305.1159079645,0.035070794,,8237.4618594484,0.9468346965,,,,,,,,,,,,,,,,,,,,,,,,,,,,,,,,,,,,,,,,,,,
588,79,13.09925000,45.43905000,Wadi Bana,Yemen,Arabian Sea,6.40,6400.00,200,2000,Mountain,STr,A,D,STr-A-D,0.17,5.387089982,0.17,,26.56,26.56,,,,,,,,,5.387089982,,,,,,209.1058620445,0.0326727909,,6199.1158430313,0.9686118505,,,,,,,,,,,,,,,,,,,,,,,,,,,,,,,,,,,,,,,,,,,
1382,80,-14.26972000,-38.99104000,Contas,Brazil,Atlantic,56.00,56000.00,490,>500,Upland,Tr,SA,S,Tr-SA-S,1.5,47.5331469,1.50,,26.79,26.79,0.1,,0.00,66.67,,,,,47.5331469,,,,,,3179.9414963727,0.0567846696,,48048.1249413364,0.8580022311,,,,,,,,,,,,,,,,,,,,,,,,,,,,,,,,,,,,,,,,,,,
1144,81,-17.52400000,140.55770000,Flinders,Australia,Gulf of Carpentaria,110.00,110000.00,830,300,Lowland,Tr,A,S,Tr-A-S,3,95.0662938,0.50,3.00,4.55,27.27,9.3,,0.08,18600.00,0.3,,0.0027272727, 600.00 ,95.0662938,,,,,,7563.2181055577,0.0687565282,,92211.6150247873,0.8382874093,,,,,,,,,,,,,,,,,,,,,,,,,,,,,,,,,,,,,,,,,,,
532,82,27.10698000,56.82071000,Dozdan,Iran,Straight of Hormuz,11.00,11000.00,260,>1500,Mountain,STr,A,W,STr-A-W,0.3,9.50662938,0.30,,27.27,27.27,,,,,,,,,9.50662938,,,,,,425.3110092183,0.0386646372,,10575.8985271897,0.9614453207,,,,,,,,,,,,,,,,,,,,,,,,,,,,,,,,,,,,,,,,,,,
1079,83,36.67856000,-121.81700000,Salinas,USA,Monterey Bay,11.00,11000.00,280,1900,Mountain,STr,A,W,STr-A-W,0.3,9.50662938,0.30,,27.27,27.27,2.3,,0.21,7666.67,0.17,,0.0154545455, 566.67 ,9.50662938,,,,,,425.3110092183,0.0386646372,,10575.8985271897,0.9614453207,,,,,,,,,,,,,,,,,,,,,,,,,,,,,,,,,,,,,,,,,,,
1428,84,-30.73100000,-71.70600000,Limari,Chile,Pacific,11.00,11000.00,110,4900,High Mountain,Te,A,W,Te-A-W,0.3,9.50662938,0.30,,27.27,27.27,,,,,,,,,9.50662938,,,,,,425.3110092183,0.0386646372,,10575.8985271897,0.9614453207,,,,,,,,,,,,,,,,,,,,,,,,,,,,,,,,,,,,,,,,,,,
36,85,31.72728000,31.12304000,Nile,Egypt,Mediterranean,2900.00,2900000.00,6700,3800,High Mountain,STr,A,W,STr-A-W,80,2535.101168,30.00,80.00,10.34,27.59,0.2,120,0.00,6.67,1.2,6.1,0.0004137931, 40.00 ,2535.101168,,,,,,458318.660498786,0.1580409174,,2022386.20338731,0.6973745529,,,,,,,,,,,,,,,,,,,,,,,,,,,,,,,,,,,,,,,,,,,
2,86,36.04642000,0.12865000,Chéliff,Algeria,Mediterranean,44.00,44000.00,720,1900,Mountain,STr,A,W,STr-A-W,1.3,41.19539398,1.30,,29.55,29.55,4,,0.09,3076.92,,,,,41.19539398,,,,,,2659.0974074529,0.060434032,,41997.9705473944,0.9544993306,,,,,,,,,,,,,,,,,,,,,,,,,,,,,,,,,,,,,,,,,,,
1383,87,-6.31159000,-35.03093000,Curimataú,Brazil,Atlantic,5.00,5000.00,180,700,Upland,Tr,SA,S,Tr-SA-S,0.15,4.75331469,0.15,,30.00,30.00,,,,,,,,,4.75331469,,,,,,178.8212515098,0.0357642503,,5510.7167753727,1.1021433551,,,,,,,,,,,,,,,,,,,,,,,,,,,,,,,,,,,,,,,,,,,
1124,88,-34.44040000,115.30610000,Blackwood,Australia,Indian,20.00,20000.00,310,>200,Lowland,STr,A,W,STr-A-W,0.6,19.01325876,0.60,,30.00,30.00,,,,,,,,,19.01325876,,,,,,1011.5657565028,0.0505782878,,20296.7479942476,1.0148373997,,,,,,,,,,,,,,,,,,,,,,,,,,,,,,,,,,,,,,,,,,,
596,89,14.10883000,43.09376000,Wadi Zabid,Yemen,Arabian Sea,4.60,4600.00,250,1500,Mountain,STr,A,D,STr-A-D,0.14,4.436427044,0.14,,30.43,30.43,,,,,,,,,4.436427044,,,,,,164.0457943417,0.0356621292,,5164.5041123985,1.1227182853,,,,,,,,,,,,,,,,,,,,,,,,,,,,,,,,,,,,,,,,,,,
946,90,31.80906000,-114.81200000,Colorado,Mexico,Gulf of California,640.00,640000.00,3200,4100,High Mountain,Tr,A,S,Tr-A-S,20,633.775292,0.20,20.00,0.31,31.25,0.1,120,0.00,500.00,0.11,,0.000171875, 550.00 ,633.775292,,,,,,81020.0581957566,0.1265938409,,549092.7699574,0.8579574531,,,,,,,,,,,,,,,,,,,,,,,,,,,,,,,,,,,,,,,,,,,
10,91,35.29658000,-1.46170000,Tafna,Algeria,Mediterranean,8.80,8800.00,80,>500,Upland,STr,A,W,STr-A-W,0.28,8.872854088,0.28,,31.82,31.82,1,,0.11,3571.43,,,,,8.872854088,,,,,,390.1688516349,0.0443373695,,9911.4640912181,1.1263027376,,,,,,,,,,,,,,,,,,,,,,,,,,,,,,,,,,,,,,,,,,,
1363,92,-43.33700000,-65.03900000,Chubut,Argentina,Atlantic,40.00,40000.00,850,>1000,Mountain,Te,A,Sp,Te-A-Sp,1.3,41.19539398,1.30,,32.50,32.50,0.6,,0.02,461.54,0.05,,0.00125, 38.46 ,41.19539398,,,,,,2659.0974074529,0.0664774352,,41997.9705473944,1.0499492637,,,,,,,,,,,,,,,,,,,,,,,,,,,,,,,,,,,,,,,,,,,
188,93,-5.42287000,38.98523000,Pangani,Tanzania,Indian,29.00,29000.00,480,5900,High Mountain,Tr,A,S,Tr-A-S,0.95,30.10432637,0.95,,32.76,32.76,,,,,,,,,30.10432637,,,,,,1796.6337877579,0.0619528892,,31269.2844720479,1.0782511887,,,,,,,,,,,,,,,,,,,,,,,,,,,,,,,,,,,,,,,,,,,
1084,94,33.45874000,-117.68301000,San Juan Capistrano,USA,Pacific,0.30,300.00,,1900,Mountain,STr,A,W,STr-A-W,0.01,0.316887646,0.01,,33.33,33.33,0.089,,0.30,8900.00,,,,,0.316887646,,,,,,6.0576622639,0.0201922075,,431.649737625,1.4388324588,,,,,,,,,,,,,,,,,,,,,,,,,,,,,,,,,,,,,,,,,,,
1140,95,-23.41417000,150.81916000,East Fitzroy,Australia,Pacific,140.00,140000.00,960,970,Upland,STr,A,S,STr-A-S,5.3,167.95045238,5.30,,37.86,37.86,3,0.3,0.02,566.04,1.1,,0.0078571429, 207.55 ,167.95045238,,,,,,15404.581109385,0.1100327222,,157480.477197362,1.1248605514,,,,,,,,,,,,,,,,,,,,,,,,,,,,,,,,,,,,,,,,,,,
166,96,-33.28082000,27.46638000,Keiskama,South Africa,Indian,5.20,5200.00,230,>1500,Mountain,STr,SA,S,STr-SA-S,0.2,6.33775292,0.20,,38.46,38.46,,,,,,,,,6.33775292,,,,,,256.207920058,0.0492707539,,7222.8570354602,1.3890109684,,,,,,,,,,,,,,,,,,,,,,,,,,,,,,,,,,,,,,,,,,,
554,97,17.10246000,42.41800000,Wadi Baysh,Saudi Arabia,Red Sea,5.20,5200.00,120,2100,Mountain,STr,A,D,STr-A-D,0.2,6.33775292,0.20,,38.46,38.46,,,,,,,,,6.33775292,,,,,,256.207920058,0.0492707539,,7222.8570354602,1.3890109684,,,,,,,,,,,,,,,,,,,,,,,,,,,,,,,,,,,,,,,,,,,
799,98,36.73381000,-2.88092200,Adra,Spain,Mediterranean,0.75,750.00,51,2700,Mountain,Te,SA,W,Te-SA-W,0.03,0.950662938,0.03,,40.00,40.00,0.15,,0.20,5000.00,,,,,0.950662938,,,,,,23.9169956542,0.0318893275,,1212.9668223179,1.6172890964,,,,,,,,,,,,,,,,,,,,,,,,,,,,,,,,,,,,,,,,,,,
232,99,40.91504000,121.25914000,Xiaolinghe,China,Yellow Sea,5.50,5500.00,180,220,Lowland,Te,A,S,Te-A-S,0.22,6.971528212,0.22,,40.00,40.00,,,,,,,,,6.971528212,,,,,,288.6246420016,0.0524772076,,7900.1898731636,1.4363981588,,,,,,,,,,,,,,,,,,,,,,,,,,,,,,,,,,,,,,,,,,,
48,100,5.49872000,-0.33269000,Ayensu,Ghana,Gulf of Guinea,1.70,1700.00,,>200,Upland,Tr,A,S,Tr-A-S,0.07,2.218213522,0.07,,41.18,41.18,0.15,,0.09,2142.86,,,,,2.218213522,,,,,,68.9727601997,0.0405722119,,2691.0356009475,1.5829621182,,,,,,,,,,,,,,,,,,,,,,,,,,,,,,,,,,,,,,,,,,,
1148,101,-38.10570000,140.87810000,Glenelg,Australia,Great Australian Bight,12.00,12000.00,230,590,Upland,Te,A,W,Te-A-W,0.5,15.8443823,0.50,,41.67,41.67,,,,,,,,,15.8443823,,,,,,805.4110090761,0.0671175841,,17098.5390059313,1.4248782505,,,,,,,,,,,,,,,,,,,,,,,,,,,,,,,,,,,,,,,,,,,
1159,102,-15.10603000,129.24761000,Keep,Australia,Timor Sea,12.00,12000.00,140,400,Lowland,Tr,A,S,Tr-A-S,0.5,15.8443823,0.50,,41.67,41.67,,,,,,,,,15.8443823,,,,,,805.4110090761,0.0671175841,,17098.5390059313,1.4248782505,,,,,,,,,,,,,,,,,,,,,,,,,,,,,,,,,,,,,,,,,,,
99,103,30.07748000,-9.67307000,Massa,Morroco,Atlantic,3.80,3800.00,90,>200,Lowland,STr,A,W,STr-A-W,0.16,5.070202336,0.16,,42.11,42.11,1.6,,0.42,10000.00,,,,,5.070202336,,,,,,193.845192444,0.0510118927,,5855.5570748532,1.5409360723,,,,,,,,,,,,,,,,,,,,,,,,,,,,,,,,,,,,,,,,,,,
1490,104,-15.00516000,-75.45625000,Grande,Peru,Pacific,13.00,13000.00,190,>4000,High Mountain,STr,A,S,STr-A-S,0.55,17.42882053,0.55,,42.31,42.31,,,,,,,,,17.42882053,,,,,,907.3156837076,0.0697935141,,18701.976799122,1.4386135999,,,,,,,,,,,,,,,,,,,,,,,,,,,,,,,,,,,,,,,,,,,
230,105,42.28300000,130.70000000,Tumenjiang,China,Sea of Japan,33.00,33000.00,540,>1000,Mountain,Te,SA,S,Te-SA-S,1.4,44.36427044,1.40,,42.42,42.42,,,,,,,,,44.36427044,,,,,,2917.1925838136,0.0883997753,,45029.4850864994,1.3645298511,,,,,,,,,,,,,,,,,,,,,,,,,,,,,,,,,,,,,,,,,,,
193,106,37.11580000,10.22549000,Majardah,Tunisia,Mediterranean,22.00,22000.00,370,1700,Mountain,STr,A,W,STr-A-W,0.94,29.787438724,0.94,,42.73,42.73,9.4,,0.43,10000.00,,,,,29.787438724,,,,,,1773.0250568884,0.080592048,,30959.6316184612,1.4072559827,,,,,,,,,,,,,,,,,,,,,,,,,,,,,,,,,,,,,,,,,,,
191,107,-6.16726000,38.86098000,Wami,Tanzania,Indian,46.00,46000.00,490,1900,Mountain,Tr,A,S,Tr-A-S,2,63.3775292,2.00,,43.48,43.48,,,,,,,,,63.3775292,,,,,,4556.0926892801,0.0990454932,,62976.3334643033,1.3690507275,,,,,,,,,,,,,,,,,,,,,,,,,,,,,,,,,,,,,,,,,,,
1088,108,34.22324000,-119.26093000,Santa Clara,USA,Pacific,4.10,4100.00,130,2000,Mountain,STr,A,W,STr-A-W,0.18,5.703977628,0.12,0.18,29.27,43.90,3,,0.73,25000.00,0.06,,0.0146341463, 500.00 ,5.703977628,,,,,,224.5927266003,0.0547787138,,6541.4729070486,1.5954811968,,,,,,,,,,,,,,,,,,,,,,,,,,,,,,,,,,,,,,,,,,,
970,109,24.84556000,-97.54560000,San Fernando,Mexico,Gulf of Mexico,18.00,18000.00,400,2600,Mountain,Tr,A,S,Tr-A-S,0.8,25.35101168,0.80,,44.44,44.44,3.6,,0.20,4500.00,,,,,25.35101168,,,,,,1449.3308613336,0.0805183812,,26602.8023255285,1.4779334625,,,,,,,,,,,,,,,,,,,,,,,,,,,,,,,,,,,,,,,,,,,
1493,110,-14.87327000,-75.57394000,Ica,Peru,Pacific,7.40,7400.00,160,>3000,High Mountain,STr,A,S,STr-A-S,0.33,10.457292318,0.33,,44.59,44.59,,,,,,,,,10.457292318,,,,,,479.1235093247,0.0647464202,,11567.6672034235,1.5631982707,,,,,,,,,,,,,,,,,,,,,,,,,,,,,,,,,,,,,,,,,,,
107,111,32.03723000,-9.34851000,Tensift,Morroco,Atlantic,20.00,20000.00,240,3600,High Mountain,STr,A,W,STr-A-W,0.91,28.836775786,0.91,,45.50,45.50,,,,,,,,,28.836775786,,,,,,1702.5771347697,0.0851288567,,30029.487021487,1.5014743511,,,,,,,,,,,,,,,,,,,,,,,,,,,,,,,,,,,,,,,,,,,
989,112,27.65383000,-110.60963000,Yaqui,Mexico,Gulf of California,79.00,79000.00,740,3200,High Mountain,Tr,H,S,Tr-H-S,3.6,114.07955256,3.60,,45.57,45.57,,,,,,,,,114.07955256,,,,,,9499.1158033959,0.1202419722,,109459.405370918,1.3855620933,,,,,Fig 4,,,,,,,,,,,,,,,,,,,,,,,,,,,,,,,,,,,,,,
961,113,25.16332000,-108.22672000,Mocorito,Mexico,Pacific,2.80,2800.00,100,1000,Mountain,Tr,A,S,Tr-A-S,0.13,4.119539398,0.13,,46.43,46.43,0.48,,0.17,3692.31,,,,,4.119539398,,,,,,149.5320359917,0.0534042986,,4816.8148311658,1.7202910111,,,,,,,,,,,,,,,,,,,,,,,,,,,,,,,,,,,,,,,,,,,
975,114,25.40523000,-112.05400000,Santo Domingo,Mexico,Pacific,2.10,2100.00,85,>2500,Mountain,Tr,A,S,Tr-A-S,0.1,3.16887646,0.10,,47.62,47.62,,,,,,,,,3.16887646,,,,,,107.7221607682,0.051296267,,3763.5685827638,1.7921755156,,,,,,,,,,,,,,,,,,,,,,,,,,,,,,,,,,,,,,,,,,,
1496,115,-12.28204000,-76.91284000,Lurin,Peru,Pacific,2.50,2500.00,90,>4500,High Mountain,STr,A,S,STr-A-S,0.12,3.802651752,0.12,,48.00,48.00,,,,,,,,,3.802651752,,,,,,135.2949585015,0.0541179834,,4467.5280769267,1.7870112308,,,,,,,,,,,,,,,,,,,,,,,,,,,,,,,,,,,,,,,,,,,
108,116,-19.88753000,34.76123000,Buzi,Mozambique,Indian,29.00,29000.00,360,1300,Mountain,Tr,A,S,Tr-A-S,1.4,44.36427044,1.40,,48.28,48.28,,,,,,,,,44.36427044,,,,,,2917.1925838136,0.1005928477,,45029.4850864994,1.5527408651,,,,,,,,,,,,,,,,,,,,,,,,,,,,,,,,,,,,,,,,,,,
1394,117,-4.42479000,-37.75661000,Jaguaribe,Brazil,Atlantic,81.00,81000.00,460,>500,Upland,Tr,A,S,Tr-A-S,4,126.7550584,<1,4.00,#VALUE!,49.38,0.06,,0.00,#VALUE!,,,,,126.7550584,,,,,,10836.2756854075,0.1337811813,,120861.103823991,1.4921123929,,,,,,,,,,,,,,,,,,,,,,,,,,,,,,,,,,,,,,,,,,,
1091,118,34.68864000,-120.59419000,Santa Ynez,USA,Pacific,2.00,2000.00,120,2200,Mountain,STr,A,W,STr-A-W,0.1,3.16887646,0.10,,50.00,50.00,2,3,1.00,20000.00,,,,,3.16887646,,,,,,107.7221607682,0.0538610804,,3763.5685827638,1.8817842914,,,,,,,,,,,,,,,,,,,,,,,,,,,,,,,,,,,,,,,,,,,
995,119,28.88300000,-95.38300000,Brazos,USA,Gulf of Mexico,120.00,120000.00,2000,1200,Mountain,STr,A,Sp,STr-A-Sp,6,190.1325876,6.00,,50.00,50.00,9.2,,0.08,1533.33,2.8,,0.0233333333, 466.67 ,190.1325876,,,,,,17988.4655668931,0.1499038797,,176968.028531002,1.4747335711,,,,,,,,,,,,,,,,,,,,,,,,,,,,,,,,,,,,,,,,,,,
1506,120,-13.47218000,-76.17949000,San Juan,Peru,Pacific,3.90,3900.00,130,>4000,High Mountain,STr,A,S,STr-A-S,0.2,6.33775292,0.20,,51.28,51.28,,,,,,,,,6.33775292,,,,,,256.207920058,0.0656943385,,7222.8570354602,1.8520146245,,,,,,,,,,,,,,,,,,,,,,,,,,,,,,,,,,,,,,,,,,,
1128,121,-24.74488000,152.34877000,Burnett,Australia,Pacific,33.00,33000.00,400,1140,Mountain,STr,A,S,STr-A-S,1.7,53.87089982,1.70,,51.52,51.52,0.7,,0.02,411.76,,,,,53.87089982,,,,,,3718.4864899223,0.1126814088,,54050.2995695406,1.6378878657,,,,,,,,,,,,,,,,,,,,,,,,,,,,,,,,,,,,,,,,,,,
117,122,-14.17069000,40.53027000,Mecuburi,Mozambique,Indian,8.90,8900.00,280,>200,Lowland,Tr,A,S,Tr-A-S,0.46,14.576831716,0.46,,51.69,51.69,,,,,,,,,14.576831716,,,,,,725.6920173039,0.0815384289,,15808.9345357854,1.7762847793,,,,,,,,,,,,,,,,,,,,,,,,,,,,,,,,,,,,,,,,,,,
1362,123,-49.75675000,-68.66403000,Chico,Argentina,Atlantic,17.00,17000.00,410,>1000,Mountain,Te,A,Sp,Te-A-Sp,0.9,28.51988814,0.90,,52.94,52.94,0.1,,0.01,111.11,0.3,,0.0176470588, 333.33 ,28.51988814,,,,,,1679.2222999644,0.0987777824,,29719.0358559308,1.7481785798,,,,,,,,,,,,,,,,,,,,,,,,,,,,,,,,,,,,,,,,,,,
845,124,47.23310000,31.74210000,Yuzhny Bug,Ukraine,Black Sea,64.00,64000.00,860,390,Lowland,Te,A,S,Te-A-S,3.4,107.74179964,2.80,3.40,43.75,53.13,0.2,,0.00,71.43,1,0.83,0.015625, 357.14 ,107.74179964,,,,,,8844.1011817141,0.138189081,,103730.695463478,1.6207921166,,,,,,,,,,,,,,,,,,,,,,,,,,,,,,,,,,,,,,,,,,,
1180,125,-14.64670000,135.65970000,Roper,Australia,Gulf of Carpentaria,75.00,75000.00,500,>2000,Mountain,Tr,A,S,Tr-A-S,4,126.7550584,4.00,,53.33,53.33,,,,,,,,,126.7550584,,,,,,10836.2756854075,0.1444836758,,120861.103823991,1.6114813843,,,,,,,,,,,,,,,,,,,,,,,,,,,,,,,,,,,,,,,,,,,
127,126,-26.00000000,32.58300000,Umbeluzi,Mozambique,Indian,5.60,5600.00,200,1100,Mountain,Tr,A,S,Tr-A-S,0.31,9.823517026,0.31,,55.36,55.36,,,,,,,,,9.823517026,,,,,,443.1055334756,0.0791259881,,10907.1166418239,1.9476994003,,,,,,,,,,,,,,,,,,,,,,,,,,,,,,,,,,,,,,,,,,,
1520,127,-34.79700000,-56.36941000,Santa Lucia,Uruguay,Atlantic,9.00,9000.00,200,>100,Lowland,Te,A,W,Te-A-W,0.5,15.8443823,0.50,,55.56,55.56,,,,,,,,,15.8443823,,,,,,805.4110090761,0.0894901121,,17098.5390059313,1.8998376673,,,,,,,,,,,,,,,,,,,,,,,,,,,,,,,,,,,,,,,,,,,
126,128,-20.93458000,35.10841000,Save,Mozambique,Indian,88.00,88000.00,710,1700,Mountain,Tr,SA,S,Tr-SA-S,5,158.443823,5.00,,56.82,56.82,,,,,,,,,158.443823,,,,,,14322.4581405871,0.1627552061,,149082.736776241,1.6941220088,,,,,,,,,,,,,,,,,,,,,,,,,,,,,,,,,,,,,,,,,,,
1491,129,-10.08194000,-78.17556000,Huarmey,Peru,Pacific,2.10,2100.00,90,>4000,High Mountain,STr,A,S,STr-A-S,0.12,3.802651752,0.12,,57.14,57.14,,,,,,,,,3.802651752,,,,,,135.2949585015,0.0644261707,,4467.5280769267,2.1273943223,,,,,,,,,,,,,,,,,,,,,,,,,,,,,,,,,,,,,,,,,,,
96,130,34.03955000,-6.82483000,Bou Regreg,Morroco,Atlantic,9.80,9800.00,180,>500,Upland,STr,A,W,STr-A-W,0.56,17.745708176,0.56,,57.14,57.14,4.7,,0.48,8392.86,,,,,17.745708176,,,,,,927.9831488333,0.094692158,,19021.5978714525,1.9409793746,,,,,,,,,,,,,,,,,,,,,,,,,,,,,,,,,,,,,,,,,,,
214,131,38.17438000,118.81596000,Huanghe,China,Yellow Sea,750.00,750000.00,5500,3100,High Mountain,Te,A,S/Au,Te-A-S/Au,43,1362.6168778,15.00,43.00,20.00,57.33,150,1100,0.20,10000.00,21,,0.028," 1,400.00 ",1362.6168778,,,,,,210931.10398063,0.281241472,,1127959.68150789,1.503946242,,,,,,,,,,,,,,,,,,,,,,,,,,,,,,,,,,,,,,,,,,,
1396,132,-13.15426200,-38.87381200,Jiquiniça,Brazil,Atlantic,6.00,6000.00,,<500,Lowland,Tr,H,S,Tr-H-S,0.35,11.09106761,0.35,,58.33,58.33,,,,,,,,,11.09106761,,,,,,515.6916645104,0.0859486108,,12225.8373076758,2.0376395513,,,,,,,,,,,,,,,,,,,,,,,,,,,,,,,,,,,,,,,,,,,
558,133,16.94936000,42.54829000,Wadi Jizan,Saudi Arabia,Red Sea,1.20,1200.00,70,980,Upland,STr,A,D,STr-A-D,0.07,2.218213522,0.07,,58.33,58.33,,,,,,,,,2.218213522,,,,,,68.9727601997,0.0574773002,,2691.0356009475,2.2425296675,,,,,,,,,,,,,,,,,,,,,,,,,,,,,,,,,,,,,,,,,,,
1510,134,-8.49108000,-78.87011000,Viru,Peru,Pacific,2.00,2000.00,75,3000,High Mountain,STr,A,S,STr-A-S,0.12,3.802651752,0.12,,60.00,60.00,,,,,,,,,3.802651752,,,,,,135.2949585015,0.0676474793,,4467.5280769267,2.2337640385,,,,,,,,,,,,,,,,,,,,,,,,,,,,,,,,,,,,,,,,,,,
162,135,-32.68529000,28.37526000,Great Kei,South Africa,Indian,20.00,20000.00,220,2800,Mountain,STr,A,S,STr-A-S,1.2,38.02651752,1.20,,60.00,60.00,,,,,,,,,38.02651752,,,,,,2405.9223898524,0.1202961195,,38952.5275874091,1.9476263794,,,,,,,,,,,,,,,,,,,,,,,,,,,,,,,,,,,,,,,,,,,
1512,136,-15.70481000,-74.54174000,Yauca,Peru,Pacific,4.50,4500.00,80,>4000,High Mountain,STr,A,S,STr-A-S,0.27,8.555966442,0.27,,60.00,60.00,,,,,,,,,8.555966442,,,,,,372.8290647371,0.0828509033,,9578.1978438257,2.1284884097,,,,,,,,,,,,,,,,,,,,,,,,,,,,,,,,,,,,,,,,,,,
1485,137,-9.44390000,-78.39843000,Casma,Peru,Pacific,2.90,2900.00,100,4500,High Mountain,STr,A,S,STr-A-S,0.18,5.703977628,0.18,,62.07,62.07,,,,,,,,,5.703977628,,,,,,224.5927266003,0.0774457678,,6541.4729070486,2.2556803128,,,,,,,,,,,,,,,,,,,,,,,,,,,,,,,,,,,,,,,,,,,
809,138,36.67022200,-4.42793900,Guadalhorce,Spain,Mediterranean,3.20,3200.00,154,1700,Mountain,Te,SA,W,Te-SA-W,0.2,6.33775292,0.20,,62.50,62.50,0.09,,0.03,450.00,,,,,6.33775292,,,,,,256.207920058,0.080064975,,7222.8570354602,2.2571428236,,,,,,,,,,,,,,,,,,,,,,,,,,,,,,,,,,,,,,,,,,,
848,139,69.67707000,-128.95000000,Anderson,Canada,Beaufort Sea,56.00,56000.00,750,<200,Coastal Plain,Ar,A,S,Ar-A-S,3.5,110.9106761,3.50,,62.50,62.50,,,,,1.1,,0.0196428571, 314.29 ,110.9106761,,,,,,9170.4386892759,0.1637578337,,106597.486754694,1.9035265492,,,,,,,,,,,,,,,,,,,,,,,,,,,,,,,,,,,,,,,,,,,
1408,140,-5.08924000,-36.68991000,Piranhas,Brazil,Atlantic,43.00,43000.00,400,>500,Upland,Tr,A,S,Tr-A-S,2.7,85.55966442,2.70,,62.79,62.79,,,,,,,,,85.55966442,,,,,,6629.9424928603,0.1541847091,,83512.6292045468,1.9421541675,,,,,,,,,,,,,,,,,,,,,,,,,,,,,,,,,,,,,,,,,,,
229,141,38.13971000,118.03779000,Tuhaihe,China,Yellow Sea,19.00,19000.00,440,>400,Lowland,Te,A,S/Au,Te-A-S/Au,1.2,38.02651752,1.20,,63.16,63.16,0.5,,0.03,416.67,,,,,38.02651752,,,,,,2405.9223898524,0.1266274942,,38952.5275874091,2.0501330309,,,,,,,,,,,,,,,,,,,,,,,,,,,,,,,,,,,,,,,,,,,
113,142,-25.19447000,33.52523000,Limpopo,Mozambique,Indian,410.00,410000.00,1700,1700,Mountain,Tr,A,S,Tr-A-S,26,823.9078796,4.80,26.00,11.71,63.41,6,33,0.01,1250.00,1.3,6.2,0.0031707317, 270.83 ,823.9078796,,,,,,112466.127413199,0.2743076278,,702758.071190616,1.7140440761,,,,,,,,,,,,,,,,,,,,,,,,,,,,,,,,,,,,,,,,,,,
46,143,13.55000000,-16.63300000,Gambia,Gambia,Atlantic,77.00,77000.00,1100,1100,Mountain,Tr,A,S,Tr-A-S,4.9,155.27494654,4.90,,63.64,63.64,0.2,,0.00,40.82,0.22,,0.0028571429, 44.90 ,155.27494654,,,,,,13965.2963560736,0.1813674851,,146276.903584862,1.8997000466,,,,,,,,,,,,,,,,,,,,,,,,,,,,,,,,,,,,,,,,,,,
1504,144,-5.60645000,-80.88363000,Piura,Peru,Pacific,13.00,13000.00,240,>500,Upland,STr,A,S,STr-A-S,0.83,26.301674618,0.83,,63.85,63.85,,,,,,,,,26.301674618,,,,,,1517.5837644113,0.1167372126,,27539.9846932964,2.118460361,,,,,,,,,,,,,,,,,,,,,,,,,,,,,,,,,,,,,,,,,,,
1195,145,-17.24510000,123.50910000,West Fitzroy,Australia,Indian,86.00,86000.00,520,910,Upland,Tr,A,S,Tr-A-S,5.5,174.2882053,5.50,,63.95,63.95,,,,,,,,,174.2882053,,,,,,16134.6079874256,0.1876117208,,163063.164833655,1.896083312,,,,,,,,,,,,,,,,,,,,,,,,,,,,,,,,,,,,,,,,,,,
1192,146,-14.92880000,129.55700000,Victoria,Australia,Timor Sea,78.00,78000.00,560,370,Lowland,Tr,A,S,Tr-A-S,5,158.443823,5.00,,64.10,64.10,,,,,,,,,158.443823,,,,,,14322.4581405871,0.1836212582,,149082.736776241,1.9113171382,,,,,,,,,,,,,,,,,,,,,,,,,,,,,,,,,,,,,,,,,,,
270,147,21.22713000,72.10507700,Shetrunji,India,Arabian Sea,5.50,5500.00,180,,,Tr,SA,S,Tr-SA-S,0.36,11.407955256,0.36,,65.45,65.45,,,,,,,,,11.407955256,,,,,,534.1745369018,0.0971226431,,12554.0753595755,2.2825591563,,,,,,,,,,,,,,,,,,,,,,,,,,,,,,,,,,,,,,,,,,,
268,148,22.36365000,72.39214000,Sabarmati,India,Arabian Sea,21.00,21000.00,420,760,Upland,Tr,A,S,Tr-A-S,1.4,44.36427044,1.40,,66.67,66.67,4.6,,0.22,3285.71,0.5,,0.0238095238, 357.14 ,44.36427044,,,,,,2917.1925838136,0.1389139326,,45029.4850864994,2.1442611946,,,,,,,,,,,,,,,,,,,,,,,,,,,,,,,,,,,,,,,,,,,
1402,149,-12.84293000,-38.78742000,Paraguaçu,Brazil,Atlantic,60.00,60000.00,480,>1000,Mountain,Tr,SA,S,Tr-SA-S,4,126.7550584,4.00,,66.67,66.67,0.2,,0.00,50.00,,,,,126.7550584,,,,,,10836.2756854075,0.1806045948,,120861.103823991,2.0143517304,,,,,,,,,,,,,,,,,,,,,,,,,,,,,,,,,,,,,,,,,,,
347,150,47.09984000,39.14852000,Don,Russia,Black Sea,420.00,420000.00,1900,180,Lowland,SAr,A,S,SAr-A-S,29,918.9741734,21.00,29.00,50.00,69.05,1.9,6.3,0.00,90.48,11,12,0.0261904762, 523.81 ,918.9741734,,,,,,128914.733036699,0.3069398406,,778766.43418167,1.8542057957,,,,,,,,,,,,,,,,,,,,,,,,,,,,,,,,,,,,,,,,,,,
1167,151,-15.69820000,136.75760000,McArthur,Australia,Gulf of Carpentaria,10.00,10000.00,250,>200,Lowland,Tr,A,S,Tr-A-S,0.7,22.18213522,0.70,,70.00,70.00,,,,,,,,,22.18213522,,,,,,1226.5283931668,0.1226528393,,23463.2299293161,2.3463229929,,,,,,,,,,,,,,,,,,,,,,,,,,,,,,,,,,,,,,,,,,,
1463,152,-0.15975000,-80.27437000,Jama,Ecuador,Pacific,2.10,2100.00,75,>200,Lowland,Tr,A,S,Tr-A-S,0.15,4.75331469,0.15,,71.43,71.43,,,,,,,,,4.75331469,,,,,,178.8212515098,0.0851529769,,5510.7167753727,2.6241508454,,,,,,,,,,,,,,,,,,,,,,,,,,,,,,,,,,,,,,,,,,,
584,153,36.73374000,34.90444000,Tarsus,Turkey,Mediterranean,1.40,1400.00,100,2600,Mountain,STr,SA,W,STr-SA-W,0.1,3.16887646,0.10,,71.43,71.43,0.13,,0.09,1300.00,,,,,3.16887646,,,,,,107.7221607682,0.0769444005,,3763.5685827638,2.6882632734,,,,,,,,,,,,,,,,,,,,,,,,,,,,,,,,,,,,,,,,,,,
821,154,39.36728000,-0.23594000,Turia,Spain,Mediterranean,6.40,6400.00,240,>2000,Mountain,Te,A,W,Te-A-W,0.46,14.576831716,0.46,,71.88,71.88,,,,,,,,,14.576831716,,,,,,725.6920173039,0.1133893777,,15808.9345357854,2.4701460212,,,,,,,,,,,,,,,,,,,,,,,,,,,,,,,,,,,,,,,,,,,
1138,155,-13.92550000,126.73940000,Drysdale,Australia,Timor Sea,15.00,15000.00,370,>500,Upland,Tr,H,S,Tr-H-S,1.1,34.85764106,1.10,,73.33,73.33,,,,,,,,,34.85764106,,,,,,2157.9725332372,0.1438648355,,35891.920588133,2.3927947059,,,,,,,,,,,,,,,,,,,,,,,,,,,,,,,,,,,,,,,,,,,
1464,156,-1.35774000,-80.77293000,Jipijapa,Ecuador,Pacific,2.60,2600.00,,>200,Lowland,Tr,A,S,Tr-A-S,0.2,6.33775292,0.20,,76.92,76.92,,,,,,,,,6.33775292,,,,,,256.207920058,0.0985415077,,7222.8570354602,2.7780219367,,,,,,,,,,,,,,,,,,,,,,,,,,,,,,,,,,,,,,,,,,,
1127,157,-19.55368000,147.56013000,Burdekin,Australia,Pacific,130.00,130000.00,710,980,Upland,STr,A,S,STr-A-S,10,316.887646,10.00,,76.92,76.92,3,0.5,0.02,300.00,2.4,,0.0184615385, 240.00 ,316.887646,,,,,,34064.7382502295,0.2620364481,,286112.308175122,2.200863909,,,,,,,,,,,,,,,,,,,,,,,,,,,,,,,,,,,,,,,,,,,
128,158,-18.92490000,36.30840000,Zambezi,Mozambique,Indian,1300.00,1300000.00,2600,1600,Mountain,Tr,A,S,Tr-A-S,100,3168.87646,100.00,,76.92,76.92,9,48,0.01,90.00,11,,0.0084615385, 110.00 ,3168.87646,,,,,,605766.226387485,0.4659740203,,2494622.8396074,1.9189406459,,,,,,,,,,,,,,,,,,,,,,,,,,,,,,,,,,,,,,,,,,,
1043,159,34.04486000,-118.68919000,Malibu,USA,Pacific,0.27,270.00,,930,Upland,STr,A,W,STr-A-W,0.021,0.6654640566,0.02,,77.78,77.78,,,,,,,,,0.6654640566,,,,,,15.3136661407,0.056717282,,867.2983711721,3.2122161895,,,,,,,,,,,,,,,,,,,,,,,,,,,,,,,,,,,,,,,,,,,
8,160,36.87893000,7.77107000,Seybousse,Algeria,Mediterranean,5.50,5500.00,200,>500,Upland,STr,A,W,STr-A-W,0.43,13.626168778,0.43,,78.18,78.18,1.2,,0.22,2790.70,,,,,13.626168778,,,,,,667.0227179526,0.1212768578,,14837.3680497136,2.6977032818,,,,,,,,,,,,,,,,,,,,,,,,,,,,,,,,,,,,,,,,,,,
1085,161,33.20000000,-117.40000000,San Luis Rey,USA,Pacific,1.40,1400.00,80,2100,Mountain,STr,A,W,STr-A-W,0.11,3.485764106,0.03,0.11,21.43,78.57,0.19,,0.14,6333.33,,,,,3.485764106,,,,,,121.3517134065,0.0866797953,,4116.5021346173,2.9403586676,,,,,,,,,,,,,,,,,,,,,,,,,,,,,,,,,,,,,,,,,,,
1018,162,28.28300000,-96.71700000,Guadalupe,USA,Gulf of Mexico,26.00,26000.00,740,700,Upland,STr,A,W,STr-A-W,2.1,66.54640566,2.10,,80.77,80.77,0.3,,0.01,142.86,0.6,,0.0230769231, 285.71 ,66.54640566,,,,,,4842.6064331856,0.1862540936,,65933.3644108432,2.5358986312,,,,,,,,,,,,,,,,,,,,,,,,,,,,,,,,,,,,,,,,,,,
1405,163,-15.66700000,-38.93800000,Pardo,Brazil,Atlantic,47.00,47000.00,640,>1000,Mountain,Tr,A,S,Tr-A-S,3.8,120.41730548,3.80,,80.85,80.85,0.15,,0.00,39.47,,,,,120.41730548,,,,,,10163.2954770599,0.2162403293,,115169.189918434,2.4504082961,,,,,,,,,,,,,,,,,,,,,,,,,,,,,,,,,,,,,,,,,,,
901,164,56.91106000,-92.87360000,Nelson,Canada,Hudson Bay,1100.00,1100000.00,2700,3400,High Mountain,SAr,A,S,SAr-A-S,89,2820.3000494,89.00,,80.91,80.91,,,,,21,,0.0190909091, 235.96 ,2820.3000494,,,,,,523651.756359917,0.4760470512,,2235670.50433973,2.0324277312,,,,,,,,,,,,,,,,,,,,,,,,,,,,,,,,,,,,,,,,,,,
1147,165,-16.37510000,141.19520000,Gilbert,Australia,Gulf of Carpentaria,16.00,16000.00,500,400,Lowland,Tr,SA,S,Tr-SA-S,1.3,41.19539398,1.30,,81.25,81.25,,,,,,,,,41.19539398,,,,,,2659.0974074529,0.166193588,,41997.9705473944,2.6248731592,,,,,,,,,,,,,,,,,,,,,,,,,,,,,,,,,,,,,,,,,,,
142,166,16.04796000,-16.57430000,Senegal,Senegal,Atlantic,270.00,270000.00,1600,1200,Mountain,Tr,A,S,Tr-A-S,22,697.1528212,22.00,,81.48,81.48,3,,0.01,136.36,0.6,,0.0022222222, 27.27 ,697.1528212,,,,,,91271.125757562,0.3380412065,,600584.660522555,2.2243876316,,,,,,,,,,,,,,,,,,,,,,,,,,,,,,,,,,,,,,,,,,,
1154,167,-32.91040000,151.85420000,Hunter,Australia,Tasman Sea,22.00,22000.00,470,1200,Mountain,STr,A,C,STr-A-C,1.8,57.03977628,1.80,,81.82,81.82,11,,0.50,6111.11,,,,,57.03977628,,,,,,3993.8862135778,0.1815402824,,57035.3223273716,2.5925146512,,,,,,,,,,,,,,,,,,,,,,,,,,,,,,,,,,,,,,,,,,,
19,168,-17.25000000,11.75000000,Cunene,Angola,Atlantic,83.00,83000.00,980,1800,Mountain,STr,A,S,STr-A-S,6.8,215.48359928,6.80,,81.93,81.93,,,,,0.35,,0.0042168675, 51.47 ,215.48359928,,,,,,21034.9361021967,0.2534329651,,199074.88519084,2.3984925927,,,,,,,,,,,,,,,,,,,,,,,,,,,,,,,,,,,,,,,,,,,
116,169,-26.18142000,32.69412000,Maputo,Mozambique,Indian,34.00,34000.00,560,2300,Mountain,Tr,A,S,Tr-A-S,2.8,88.72854088,2.80,,82.35,82.35,,,,,,,,,88.72854088,,,,,,6938.2923530086,0.2040674221,,86418.3888264172,2.5417173184,,,,,,,,,,,,,,,,,,,,,,,,,,,,,,,,,,,,,,,,,,,
1379,170,-8.08564000,-34.87927000,Capiberibe,Brazil,Atlantic,7.20,7200.00,200,1000,Mountain,Tr,H,S,Tr-H-S,0.6,19.01325876,0.60,,83.33,83.33,,,,,,,,,19.01325876,,,,,,1011.5657565028,0.140495244,,20296.7479942476,2.818992777,,,,,,,,,,,,,,,,,,,,,,,,,,,,,,,,,,,,,,,,,,,
1368,171,-53.77807000,-67.70819000,Grande,Argentina,Atlantic,8.40,8400.00,100,>200,Lowland,Te,A,Sp,Te-A-Sp,0.7,22.18213522,0.70,,83.33,83.33,,,,,,,,,22.18213522,,,,,,1226.5283931668,0.1460152849,,23463.2299293161,2.7932416583,,,,,,,,,,,,,,,,,,,,,,,,,,,,,,,,,,,,,,,,,,,
1376,172,-4.93142000,-37.13608000,Apodi,Brazil,Atlantic,12.00,12000.00,180,1000,Mountain,Tr,SA,S,Tr-SA-S,1,31.6887646,1.00,,83.33,83.33,,,,,,,,,31.6887646,,,,,,1915.6010049897,0.1596334171,,32814.6810770717,2.7345567564,,,,,,,,,,,,,,,,,,,,,,,,,,,,,,,,,,,,,,,,,,,
718,173,37.03709000,14.24929000,Gela,Italy,Sicilian Channel,0.24,240.00,,700,Upland,Te,SA,W,Te-SA-W,0.02,0.633775292,0.02,,83.33,83.33,0.13,,0.54,6500.00,,,,,0.633775292,,,,,,14.407630129,0.0600317922,,828.4010974419,3.4516712393,,,,,,,,,,,,,,,,,,,,,,,,,,,,,,,,,,,,,,,,,,,
746,174,42.08119000,14.79601000,Trigno,Italy,Mediterranean,1.20,1200.00,80,>1000,Mountain,Te,H,W,Te-H-W,0.1,3.16887646,0.10,,83.33,83.33,0.42,,0.35,4200.00,,,,,3.16887646,,,,,,107.7221607682,0.0897684673,,3763.5685827638,3.1363071523,,,,,,,,,,,,,,,,,,,,,,,,,,,,,,,,,,,,,,,,,,,
211,175,38.98501000,117.69783000,Haihe,China,Yellow Sea,320.00,320000.00,1300,>1000,Mountain,Te,SA,S,Te-SA-S,27,855.5966442,27.00,,84.38,84.38,0.007,0.05,0.00,0.26,5.3,,0.0165625, 196.30 ,855.5966442,,,,,,117898.902247956,0.3684340695,,728149.423343968,2.2754669479,,,,,,,,,,,,,,,,,,,,,,,,,,,,,,,,,,,,,,,,,,,
213,176,32.43952000,119.49349000,Huaihe,China,Yellow Sea,260.00,260000.00,1100,1700,Mountain,Te,A,S,Te-A-S,22,697.1528212,5.10,22.00,19.62,84.62,0.12,14,0.00,23.53,2.5,,0.0096153846, 490.20 ,697.1528212,,,,,,91271.125757562,0.3510427914,,600584.660522555,2.309941002,,,,,,,,,,,,,,,,,,,,,,,,,,,,,,,,,,,,,,,,,,,
974,177,21.74651000,-105.48285000,Santiago,Mexico,Pacific,130.00,130000.00,960,3600,High Mountain,Tr,A,S,Tr-A-S,11,348.5764106,11.00,,84.62,84.62,,,,,,,,,348.5764106,,,,,,38374.7812328524,0.2951906249,,312942.862988365,2.4072527922,,,,,,,,,,,,,,,,,,,,,,,,,,,,,,,,,,,,,,,,,,,
1528,178,11.09433000,-68.36587000,Tocuyo,Venezuela,Caribbean,4.00,4000.00,320,>500,Upland,Tr,SA,S,Tr-SA-S,0.34,10.774179964,0.34,,85.00,85.00,,,,,,,,,10.774179964,,,,,,497.3403578643,0.1243350895,,11897.0404008395,2.9742601002,,,,,,,,,,,,,,,,,,,,,,,,,,,,,,,,,,,,,,,,,,,
1170,179,-13.95064100,129.76752100,Moyle,Australia,Timor Sea,7.50,7500.00,100,250,Lowland,Tr,A,S,Tr-A-S,0.64,20.280809344,0.64,,85.33,85.33,,,,,,,,,20.280809344,,,,,,1096.5540006205,0.1462072001,,21566.8435085184,2.8755791345,,,,,,,,,,,,,,,,,,,,,,,,,,,,,,,,,,,,,,,,,,,
4,180,36.82876000,3.65845000,Isser,Algeria,Mediterranean,4.20,4200.00,90,>500,Upland,STr,A,W,STr-A-W,0.36,11.407955256,0.36,,85.71,85.71,8.3,,1.98,23055.56,,,,,11.407955256,,,,,,534.1745369018,0.1271844135,,12554.0753595755,2.9890655618,,,,,,,,,,,,,,,,,,,,,,,,,,,,,,,,,,,,,,,,,,,
138,181,4.33300000,5.88300000,Niger,Nigeria,Gulf of Guinea,2200.00,2200000.00,4000,820,Upland,Tr,A,W,Tr-A-W,190,6020.865274,160.00,190.00,72.73,86.36,40,,0.02,250.00,11,,0.005, 68.75 ,6020.865274,,,,,,1351285.31587719,0.6142205981,,4562089.84844217,2.0736772038,,,,,,,,,,,,,,,,,,,,,,,,,,,,,,,,,,,,,,,,,,,
100,182,33.72356000,-7.39570000,Mellah,Morroco,Atlantic,1.80,1800.00,80,>500,Upland,STr,A,W,STr-A-W,0.16,5.070202336,0.16,,88.89,88.89,1,,0.56,6250.00,,,,,5.070202336,,,,,,193.845192444,0.1076917736,,5855.5570748532,3.2530872638,,,,,,,,,,,,,,,,,,,,,,,,,,,,,,,,,,,,,,,,,,,
176,183,-28.45405000,32.42530000,Umfolozi,South Africa,Indian,10.00,10000.00,390,1600,Mountain,STr,A,S,STr-A-S,0.89,28.203000494,0.89,,89.00,89.00,2.4,,0.24,2696.63,,,,,28.203000494,,,,,,1655.9322508449,0.1655932251,,29408.37926621,2.9408379266,,,,,,,,,,,,,,,,,,,,,,,,,,,,,,,,,,,,,,,,,,,
208,184,40.83967000,121.57935000,Dalinghe,China,Yellow Sea,23.00,23000.00,,500,Upland,Te,A,S/Au,Te-A-S/Au,2.1,66.54640566,2.10,,91.30,91.30,36,,1.57,17142.86,,,,,66.54640566,,,,,,4842.6064331856,0.2105481058,,65933.3644108432,2.8666680179,,,,,,,,,,,,,,,,,,,,,,,,,,,,,,,,,,,,,,,,,,,
979,185,23.76700000,-97.71700000,Soto la Marina,Mexico,Gulf of Mexico,23.00,23000.00,420,2500,Mountain,Tr,A,S,Tr-A-S,2.1,66.54640566,2.10,,91.30,91.30,,,,,,,,,66.54640566,,,,,,4842.6064331856,0.2105481058,,65933.3644108432,2.8666680179,,,,,,,,,,,,,,,,,,,,,,,,,,,,,,,,,,,,,,,,,,,
110,186,-25.81601000,32.72261000,Incomati,Mozambique,Indian,46.00,46000.00,710,1800,Mountain,Tr,A,S,Tr-A-S,4.2,133.09281132,4.20,,91.30,91.30,,,,,,,,,133.09281132,,,,,,11517.7240510044,0.2503853055,,126536.093214142,2.7507846351,,,,,,,,,,,,,,,,,,,,,,,,,,,,,,,,,,,,,,,,,,,
337,187,23.83300000,67.61700000,Indus,Pakistan,Arabian Sea,980.00,980000.00,3200,7800,High Mountain,STr,A,S,STr-A-S,90,2851.988814,5.00,90.00,5.10,91.84,10,250,0.01,2000.00,10,,0.0102040816," 2,000.00 ",2851.988814,,,,,,531016.716563393,0.5418537924,,2259287.09906366,2.305394999,,,,,,,,,,,,,,,,,,,,,,,,,,,,,,,,,,,,,,,,,,,
779,188,38.37549000,-8.91190000,Sado,Portugal,Atlantic,2.70,2700.00,180,>200,Lowland,STr,SA,W,STr-SA-W,0.25,7.92219115,0.25,,92.59,92.59,,,,,,,,,7.92219115,,,,,,338.633615169,0.1254198575,,8909.4279310742,3.2997881226,,,,,,,,,,,,,,,,,,,,,,,,,,,,,,,,,,,,,,,,,,,
1175,189,-15.19960000,128.19410000,Ord,Australia,Timor Sea,55.00,55000.00,480,780,Upland,Tr,A,S,Tr-A-S,5.1,161.61269946,5.10,,92.73,92.73,20,,0.36,3921.57,,,,,161.61269946,,,,,,14681.4103107048,0.2669347329,,151885.231009098,2.7615496547,,,,,,,,,,,,,,,,,,,,,,,,,,,,,,,,,,,,,,,,,,,
9,190,36.72925000,5.08920000,Soumman,Algeria,Mediterranean,8.50,8500.00,200,>500,Upland,STr,A,W,STr-A-W,0.79,25.034124034,0.79,,92.94,92.94,4.1,,0.48,5189.87,,,,,25.034124034,,,,,,1426.7205618636,0.1678494779,,26289.9467757598,3.0929349148,,,,,,,,,,,,,,,,,,,,,,,,,,,,,,,,,,,,,,,,,,,
1081,191,33.60865000,-117.90952000,San Diego Creek,USA,Pacific,0.31,310.00,50,>500,Upland,STr,A,W,STr-A-W,0.029,0.9189741734,0.03,,93.55,93.55,,,,,,,,,0.9189741734,,,,,,22.924641541,0.0739504566,,1174.9034116349,3.7900110053,,,,,,,,,,,,,,,,,,,,,,,,,,,,,,,,,,,,,,,,,,,
183,192,-31.62619000,29.55364000,Umzimvubu,South Africa,Indian,16.00,16000.00,250,2800,Mountain,STr,SA,S,STr-SA-S,1.5,47.5331469,1.50,,93.75,93.75,2.2,,0.14,1466.67,,,,,47.5331469,,,,,,3179.9414963727,0.1987463435,,48048.1249413364,3.0030078088,,,,,,,,,,,,,,,,,,,,,,,,,,,,,,,,,,,,,,,,,,,
1422,193,-31.62545000,-71.56131000,Choapa,Chile,Pacific,3.60,3600.00,150,4000,High Mountain,Te,A,W,Te-A-W,0.34,10.774179964,0.34,,94.44,94.44,,,,,,,,,10.774179964,,,,,,497.3403578643,0.1381500994,,11897.0404008395,3.3047334447,,,,,,,,,,,,,,,,,,,,,,,,,,,,,,,,,,,,,,,,,,,
575,194,41.64182000,35.91526000,Kizil Irmark,Turkey,Black Sea,79.00,79000.00,1400,>1500,Mountain,Te,A,W,Te-A-W,7.6,240.83461096,7.60,,96.20,96.20,0.44,17,0.01,57.89,5.5,,0.0696202532, 723.68 ,240.83461096,,,,,,24172.5265863893,0.3059813492,,221027.085165997,2.7978112046,,,,,,,,,,,,,,,,,,,,,,,,,,,,,,,,,,,,,,,,,,,
582,195,41.10918000,30.71218000,Sakarya,Turkey,Black Sea,57.00,57000.00,820,>1000,Mountain,Te,SA,W,Te-SA-W,5.6,177.45708176,3.60,5.60,63.16,98.25,3.8,12,0.07,1055.56,2.9,,0.050877193, 805.56 ,177.45708176,,,,,,16502.1332643336,0.2895111099,,165849.951715146,2.9096482757,,,,,,,,,,,,,,,,,,,,,,,,,,,,,,,,,,,,,,,,,,,
278,196,11.50778000,79.76659000,Vellar,India,Bay of Bengal,8.60,8600.00,193,900,Upland,Tr,A,S,Tr-A-S,0.85,26.93544991,0.85,,98.84,98.84,,,,,,,,,26.93544991,,,,,,1563.4309797725,0.1817943,,28163.6488650139,3.2748428913,,,,,,,,,,,,,,,,,,,,,,,,,,,,,,,,,,,,,,,,,,,
1126,197,-27.30110000,153.22880000,Brisbane,Australia,Tasman Sea,14.00,14000.00,340,>1000,Mountain,STr,SA,S,STr-SA-S,1.4,44.36427044,1.40,,100.00,100.00,0.29,0.18,0.02,207.14,,,,,,44.36427044,,,,,2917.1925838136,0.2083708988,,8253.2576223093,0.5895184016,,,,,,,,,,,,,,,,,,,,,,,,,,,,,,,,,,,,,,,,,,,
58,198,5.13452000,-4.94818000,Bandama,Ivory Coast,Gulf of Guinea,97.00,97000.00,1050,1000,Mountain,Tr,SA,S,Tr-SA-S,9.7,307.38101662,9.70,,100.00,100.00,1.2,7.2,0.01,123.71,0.79,,0.0081443299, 81.44 ,,307.38101662,,,,,32792.137326796,0.3380632714,,59201.0612771128,0.6103202194,,,,,,,,,,,,,,,,,,,,,,,,,,,,,,,,,,,,,,,,,,,
1482,199,-15.65603000,-74.64999000,Acari,Peru,Pacific,4.10,4100.00,330,>4000,High Mountain,STr,A,S,STr-A-S,0.41,12.992393486,0.41,,100.00,100.00,,,,,,,,,,12.992393486,,,,,628.4704712294,0.1532854808,,2364.428560701,0.5766898929,,,,,,,,,,,,,,,,,,,,,,,,,,,,,,,,,,,,,,,,,,,
1381,200,-4.10375000,-38.15014000,Churo,Brazil,Atlantic,5.00,5000.00,,<500,Lowland,Tr,SA,S,Tr-SA-S,0.5,15.8443823,0.50,,100.00,100.00,,,,,,,,,,15.8443823,,,,,805.4110090761,0.1610822018,,2893.7192662654,0.5787438533,,,,,,,,,,,,,,,,,,,,,,,,,,,,,,,,,,,,,,,,,,,
266,201,11.90209000,79.82628000,Ponnaiyar,India,Bay of Bengal,16.00,16000.00,400,>500,Upland,Tr,A,S,Tr-A-S,1.6,50.70202336,1.60,,100.00,100.00,,,,,,,,,,50.70202336,,,,,3447.1091445819,0.2154443215,,9454.8859020274,0.5909303689,,,,,,,,,,,,,,,,,,,,,,,,,,,,,,,,,,,,,,,,,,,
50,202,5.72619000,0.66700000,Volta,Ghana,Gulf of Guinea,400.00,400000.00,1270,330,Lowland,Tr,A,W,Tr-A-W,40,1267.550584,40.00,,100.00,100.00,1.6,19,0.00,40.00,2.1,,0.00525, 52.50 ,,1267.550584,,,,,192699.259328657,0.4817481483,,250403.750187959,0.6260093755,,,,,,,,,,,,,,,,,,,,,,,,,,,,,,,,,,,,,,,,,,,
61,203,5.18887000,-3.71098000,Comoe,Ivory Coast,Gulf of Guinea,78.00,78000.00,1200,420,Lowland,Tr,SA,S,Tr-SA-S,7.9,250.34124034,7.90,,101.28,101.28,9,,0.12,1139.24,0.17,,0.0021794872, 21.52 ,,250.34124034,,,,,25371.0779904115,0.3252702306,,48038.3182950073,0.6158758756,,,,,,,,,,,,,,,,,,,,,,,,,,,,,,,,,,,,,,,,,,,
488,204,13.83475000,-90.32660000,Los Esclavos,Guatemala,Pacific,3.20,3200.00,120,>1000,Mountain,Tr,H,Au,Tr-H-Au,0.33,10.457292318,0.33,,103.13,103.13,,,,,,,,,,10.457292318,,,,,479.1235093247,0.1497260967,,1895.6903753312,0.5924032423,,,,,,,,,,,,,,,,,,,,,,,,,,,,,,,,,,,,,,,,,,,
843,205,46.62088000,32.57558000,Dnepr,Ukraine,Black Sea,510.00,510000.00,2200,330,Lowland,Te,A,S,Te-A-S,53,1679.5045238,43.00,53.00,84.31,103.92,2.3,,0.00,53.49,15,,0.0294117647, 348.84 ,,1679.5045238,,,,,273936.49407094,0.5371303805,,333461.916900821,0.6538468959,,,,,,,,,,,,,,,,,,,,,,,,,,,,,,,,,,,,,,,,,,,
124,206,-19.61186000,34.62322000,Pungue,Mozambique,Indian,29.00,29000.00,300,2000,Mountain,Tr,SA,S,Tr-SA-S,3.1,98.23517026,3.10,,106.90,106.90,,,,,,,,,,98.23517026,,,,,7879.6544665395,0.271712223,,18537.1953909846,0.6392136342,,,,,,,,,,,,,,,,,,,,,,,,,,,,,,,,,,,,,,,,,,,
1087,207,33.62720000,-117.95976000,Santa Ana,USA,Pacific,6.30,6300.00,150,3500,High Mountain,STr,SA,W,STr-SA-W,0.68,21.548359928,0.68,,107.94,107.94,0.16,0.5,0.03,235.29,0.03,,0.0047619048, 44.12 ,,21.548359928,,,,,1182.8813843004,0.1877589499,,3957.1972176698,0.6281265425,,,,,,,,,,,,,,,,,,,,,,,,,,,,,,,,,,,,,,,,,,,
936,208,17.90000000,-102.16700000,Balsas,Mexico,Pacific,120.00,120000.00,770,4400,High Mountain,Tr,SA,S,Tr-SA-S,13,411.9539398,13.00,,108.33,108.33,11,,0.09,846.15,11,,0.0916666667, 846.15 ,,411.9539398,,,,,47286.1816896131,0.3940515141,,79758.9502153037,0.6646579185,,,,,,,,,,,,,,,,,,,,,,,,,,,,,,,,,,,,,,,,,,,
983,209,16.20089000,-95.13473000,Tehuantepec,Mexico,Pacific,11.00,11000.00,220,> 2000,Mountain,Tr,SA,S,Tr-SA-S,1.2,38.02651752,1.20,,109.09,109.09,4.6,,0.42,3833.33,,,,,,38.02651752,,,,,2405.9223898524,0.2187202173,,7054.7111985956,0.6413373817,,,,,,,,,,,,,,,,,,,,,,,,,,,,,,,,,,,,,,,,,,,
104,210,33.32260000,-8.34479000,Oum Er Rbia,Morroco,Atlantic,30.00,30000.00,560,>1500,Mountain,STr,SA,W,STr-SA-W,3.3,104.57292318,3.30,,110.00,110.00,6.6,,0.22,2000.00,,,,,,104.57292318,,,,,8520.1547149762,0.2840051572,,19755.2583960043,0.6585086132,,,,,,,,,,,,,,,,,,,,,,,,,,,,,,,,,,,,,,,,,,,
1114,211,34.28300000,-119.31700000,Ventura,USA,Pacific,0.48,480.00,50,2000,Mountain,STr,SA,W,STr-SA-W,0.053,1.6795045238,0.05,,110.42,110.42,0.38,0.8,0.79,7169.81,,,,,,1.6795045238,,,,,48.7135627065,0.101486589,,294.6458401453,0.6138455003,,,,,,,,,,,,,,,,,,,,,,,,,,,,,,,,,,,,,,,,,,,
585,212,41.37306000,36.61287000,Yesil Irmak,Turkey,Black Sea,65.00,65000.00,520,2600,Mountain,Te,SA,W,Te-SA-W,7.2,228.15910512,7.20,,110.77,110.77,6.2,,0.10,861.11,1,,0.0153846154, 138.89 ,,228.15910512,,,,,22592.8321992663,0.3475820338,,43709.0442676255,0.6724468349,,,,,,,,,,,,,,,,,,,,,,,,,,,,,,,,,,,,,,,,,,,
261,213,12.44654000,80.15038000,Palar,India,Bay of Bengal,18.00,18000.00,350,>500,Upland,Tr,SA,S,Tr-SA-S,2,63.3775292,2.00,,111.11,111.11,,,,,,,,,,63.3775292,,,,,4556.0926892801,0.2531162605,,11865.9490215602,0.6592193901,,,,,,,,,,,,,,,,,,,,,,,,,,,,,,,,,,,,,,,,,,,
549,214,32.11839000,34.77352000,Yarcon,Israel,Mediterranean,1.80,1800.00,28,>600,Upland,STr,A,W,STr-A-W,0.2,6.33775292,0.03,0.20,16.67,111.11,,,,,,,,,,6.33775292,,,,,256.207920058,0.1423377334,,1138.6419202136,0.6325788446,,,,,,,,,,,,,,,,,,,,,,,,,,,,,,,,,,,,,,,,,,,
168,215,-34.13673000,24.84386000,Kromme,South Africa,Indian,0.90,900.00,110,1100,Mountain,STr,SA,S,STr-SA-S,0.1,3.16887646,0.10,,111.11,111.11,0.18,,0.20,1800.00,,,,,,3.16887646,,,,,107.7221607682,0.1196912897,,562.2948780782,0.6247720868,,,,,,,,,,,,,,,,,,,,,,,,,,,,,,,,,,,,,,,,,,,
942,216,19.37629000,-90.72760000,Champoton,Mexico,Gulf of Mexico,6.10,6100.00,160,>200,Lowland,Tr,SA,S,Tr-SA-S,0.68,21.548359928,0.68,,111.48,111.48,,,,,,,,,,21.548359928,,,,,1182.8813843004,0.193914981,,3957.1972176698,0.6487208554,,,,,,,,,,,,,,,,,,,,,,,,,,,,,,,,,,,,,,,,,,,
67,217,-2.60689000,40.36218000,Tana,Kenya,Indian,42.00,42000.00,800,4000,High Mountain,Tr,SA,S,Tr-SA-S,4.7,148.93719362,4.70,,111.90,111.90,32,,0.76,6808.51,0.65,,0.0154761905, 138.30 ,,148.93719362,,,,,13256.4542894636,0.315629864,,28315.1023656989,0.6741691039,,,,,,,,,,,,,,,,,,,,,,,,,,,,,,,,,,,,,,,,,,,
122,218,-15.08152000,40.70278000,Monapo,Mozambique,Indian,8.80,8800.00,240,>500,Upland,Tr,SA,S,Tr-SA-S,1,31.6887646,1.00,,113.64,113.64,,,,,,,,,,31.6887646,,,,,1915.6010049897,0.2176819324,,5859.7547129732,0.6658812174,,,,,,,,,,,,,,,,,,,,,,,,,,,,,,,,,,,,,,,,,,,
26,219,6.33939100,2.46343100,Oueme,Benin,Gulf of Guinea,50.00,50000.00,700,600,Upland,Tr,SA,W,Tr-SA-W,5.7,180.62595822,5.70,,114.00,114.00,2.4,,0.05,421.05,,,,,,180.62595822,,,,,16871.3030235514,0.3374260605,,34458.4727219227,0.6891694544,,,,,,,,,,,,,,,,,,,,,,,,,,,,,,,,,,,,,,,,,,,
1521,220,9.33857000,-71.72430000,Catatumbo,Venezuela,Caribbean,35.00,35000.00,340,>500,Upland,Tr,H,W,Tr-H-W,4,126.7550584,4.00,,114.29,114.29,,,,,,,,,,126.7550584,,,,,10836.2756854075,0.3096078767,,24028.4368679358,0.6865267677,,,,,,,,,,,,,,,,,,,,,,,,,,,,,,,,,,,,,,,,,,,
264,221,14.56533000,80.14432000,Penner,India,Bay of Bengal,55.00,55000.00,560,1500,Mountain,Tr,A,S,Tr-A-S,6.3,199.63921698,2.40,6.30,43.64,114.55,6.9,,0.13,2875.00,1.1,,0.02, 458.33 ,,199.63921698,,,,,19119.6854450162,0.3476306445,,38154.0302552227,0.693709641,,,,,,,,,,,,,,,,,,,,,,,,,,,,,,,,,,,,,,,,,,,
564,222,36.06627000,35.95503000,Asi,Turkey,Mediterranean,23.00,23000.00,500,3100,High Mountain,STr,SA,W,STr-SA-W,2.7,85.55966442,2.70,,117.39,117.39,0.36,19,0.02,133.33,1,,0.0434782609, 370.37 ,,85.55966442,,,,,6629.9424928603,0.2882583693,,16105.3889075446,0.7002343003,,,,,,,,,,,,,,,,,,,,,,,,,,,,,,,,,,,,,,,,,,,
607,223,51.50167000,-2.70926000,Bristol Avon,England,Irish Sea,2.30,2300.00,120,>500,Upland,Te,H,W,Te-H-W,0.27,8.555966442,0.27,,117.39,117.39,0.02,,0.01,74.07,0.1,,0.0434782609, 370.37 ,,8.555966442,,,,,372.8290647371,0.1620995934,,1545.453374033,0.6719362496,,,,,,,,,,,,,,,,,,,,,,,,,,,,,,,,,,,,,,,,,,,
1530,224,10.12269000,-65.31904000,Unare,Venezuela,Caribbean,17.00,17000.00,210,>200,Lowland,Tr,SA,S,Tr-SA-S,2,63.3775292,2.00,,117.65,117.65,,,,,,,,,,63.3775292,,,,,4556.0926892801,0.2680054523,,11865.9490215602,0.6979970013,,,,,,,,,,,,,,,,,,,,,,,,,,,,,,,,,,,,,,,,,,,
1406,225,-2.74130000,-41.82245000,Parnaiba,Brazil,Atlantic,340.00,340000.00,1400,>500,Upland,Tr,A,S,Tr-A-S,40,1267.550584,40.00,,117.65,117.65,2.7,,0.01,67.50,,,,,,1267.550584,,,,,192699.259328657,0.5667625274,,250403.750187959,0.7364816182,,,,,,,,,,,,,,,,,,,,,,,,,,,,,,,,,,,,,,,,,,,
967,226,23.70302000,-106.81339000,Piaxtla,Mexico,Pacific,11.00,11000.00,220,2900,Mountain,Tr,H,S,Tr-H-S,1.3,41.19539398,1.30,,118.18,118.18,4,,0.36,3076.92,,,,,,41.19539398,,,,,2659.0974074529,0.241736128,,7653.5710765622,0.6957791888,,,,,,,,,,,,,,,,,,,,,,,,,,,,,,,,,,,,,,,,,,,
1390,227,-2.83901000,-44.18074000,Itapecuru,Brazil,Atlantic,76.00,76000.00,640,>200,Lowland,Tr,SA,S,Tr-SA-S,9,285.1988814,9.00,,118.42,118.42,,,,,,,,,,285.1988814,,,,,29861.2644090486,0.3929113738,,54855.1612822261,0.7217784379,,,,,,,,,,,,,,,,,,,,,,,,,,,,,,,,,,,,,,,,,,,
105,228,34.28165000,-6.65790000,Sebou,Morroco,Atlantic,37.00,37000.00,500,>1000,Mountain,STr,SA,W,STr-SA-W,4.4,139.43056424,1.40,4.40,37.84,118.92,2,37,0.05,1428.57,3.1,,0.0837837838," 2,214.29 ",,139.43056424,,,,,12207.3360949307,0.3299280026,,26476.4508200526,0.7155797519,,,,,,,,,,,,,,,,,,,,,,,,,,,,,,,,,,,,,,,,,,,
1299,229,-40.29354000,176.67015000,Porangahau,New Zealand,Pacific,0.84,840.00,45,>500,Upland,STr,H,W,STr-H-W,0.1,3.16887646,0.10,,119.05,119.05,0.41,,0.49,4100.00,,,,,,3.16887646,,,,,107.7221607682,0.1282406676,,562.2948780782,0.6693986644,,,,,,,,,,,,,,,,,,,,,,,,,,,,,,,,,,,,,,,,,,,
115,230,-13.50304000,40.54551000,Lurio,Mozambique,Indian,61.00,61000.00,600,1300,Mountain,Tr,SA,S,Tr-SA-S,7.3,231.32798158,7.30,,119.67,119.67,,,,,,,,,,231.32798158,,,,,22985.7474856255,0.3768155326,,44327.0667075095,0.7266732247,,,,,,,,,,,,,,,,,,,,,,,,,,,,,,,,,,,,,,,,,,,
934,231,18.88565000,-103.98352000,Armeria,Mexico,Pacific,10.00,10000.00,240,4300,High Mountain,Tr,SA,S,Tr-SA-S,1.2,38.02651752,1.20,,120.00,120.00,,,,,,,,,,38.02651752,,,,,2405.9223898524,0.240592239,,7054.7111985956,0.7054711199,,,,,,,,,,,,,,,,,,,,,,,,,,,,,,,,,,,,,,,,,,,
1046,232,70.89100000,-155.94900000,Meade,USA,Beaufort Sea,10.00,10000.00,240,>500,Upland,Ar,H,S,Ar-H-S,1.2,38.02651752,1.20,,120.00,120.00,,,,,,,,,,38.02651752,,,,,2405.9223898524,0.240592239,,7054.7111985956,0.7054711199,,,,,,,,,,,,,,,,,,,,,,,,,,,,,,,,,,,,,,,,,,,
780,233,38.58235000,-9.26402000,Tagus,Portugal,Atlantic,80.00,80000.00,1000,>1500,Mountain,Te,H,W,Te-H-W,9.6,304.21214016,9.60,,120.00,120.00,0.4,,0.01,41.67,3.1,,0.03875, 322.92 ,,304.21214016,,,,,32370.1042080884,0.4046263026,,58579.8645477273,0.7322483068,,,,,,,,,,,,,,,,,,,,,,,,,,,,,,,,,,,,,,,,,,,
973,234,21.90139000,-105.58421000,San Pedro,Mexico,Pacific,29.00,29000.00,500,3300,High Mountain,Tr,A,S,Tr-A-S,3.5,110.9106761,3.50,,120.69,120.69,,,,,,,,,,110.9106761,,,,,9170.4386892759,0.3162220238,,20974.6454676881,0.7232636368,,,,,,,,,,,,,,,,,,,,,,,,,,,,,,,,,,,,,,,,,,,
190,235,-6.39424000,38.89256000,Ruvu,Tanzania,Indian,18.00,18000.00,270,2600,Mountain,Tr,SA,S,Tr-SA-S,2.2,69.71528212,2.20,,122.22,122.22,,,,,,,,,,69.71528212,,,,,5132.5525810123,0.2851418101,,13074.8503296036,0.7263805739,,,,,,,,,,,,,,,,,,,,,,,,,,,,,,,,,,,,,,,,,,,
670,236,40.73472000,26.03212000,Évros,Greece,Mediterranean,55.00,55000.00,630,2900,Mountain,Te,H,W,Te-H-W,6.8,215.48359928,6.80,,123.64,123.64,1.3,,0.02,191.18,2.6,,0.0472727273, 382.35 ,,215.48359928,,,,,21034.9361021967,0.3824533837,,41238.5137237188,0.7497911586,,,,,,,,,,,,,,,,,,,,,,,,,,,,,,,,,,,,,,,,,,,
119,237,-11.54010000,40.56654000,Messalo,Mozambique,Indian,24.00,24000.00,530,>500,Upland,Tr,A,S,Tr-A-S,3,95.0662938,1.00,3.00,41.67,125.00,,,,,,,,,,95.0662938,,,,,7563.2181055577,0.3151340877,,17928.6862277867,0.7470285928,,,,,,,,,,,,,,,,,,,,,,,,,,,,,,,,,,,,,,,,,,,
1411,238,-10.50732000,-36.40504000,Saõ Francisco,Brazil,Atlantic,640.00,640000.00,2700,1400,Mountain,Tr,SA,S,Tr-SA-S,80,2535.101168,70.00,80.00,109.38,125.00,0.8,15,0.00,11.43,6,,0.009375, 85.71 ,,2535.101168,,,,,458318.660498786,0.716122907,,507065.274926878,0.7922894921,,,,,,,,,,,,,,,,,,,,,,,,,,,,,,,,,,,,,,,,,,,
1359,239,14.57517000,120.95400000,Pasig,Philippines,South China Sea,0.60,600.00,25,>1000,Mountain,Tr,W,S,Tr-W-S,0.075,2.376657345,0.08,,125.00,125.00,0.06,,0.10,800.00,,,,,,2.376657345,,,,,75.1850746829,0.1253084578,,419.5532356917,0.6992553928,,,,,,,,,,,,,,,,,,,,,,,,,,,,,,,,,,,,,,,,,,,
338,240,25.62128000,66.36624000,Porali,Pakistan,Arabian Sea,4.00,4000.00,,>500,Upland,STr,A,S,STr-A-S,0.5,15.8443823,0.50,,125.00,125.00,,,,,,,,,,15.8443823,,,,,805.4110090761,0.2013527523,,2893.7192662654,0.7234298166,,,,,,,,,,,,,,,,,,,,,,,,,,,,,,,,,,,,,,,,,,,
1527,241,10.22020000,-62.64470000,San Juan,Venezuela,Atlantic,8.00,8000.00,180,>500,Upland,Tr,SA,S,Tr-SA-S,1,31.6887646,1.00,,125.00,125.00,,,,,,,,,,31.6887646,,,,,1915.6010049897,0.2394501256,,5859.7547129732,0.7324693391,,,,,,,,,,,,,,,,,,,,,,,,,,,,,,,,,,,,,,,,,,,
776,242,37.14093000,-7.38395000,Guadiana,Portugal,Atlantic,72.00,72000.00,830,>500,Upland,Te,H,W,Te-H-W,9,285.1988814,9.00,,125.00,125.00,0.07,,0.00,7.78,4.6,,0.0638888889, 511.11 ,,285.1988814,,,,,29861.2644090486,0.4147397835,,54855.1612822261,0.76187724,,,,,,,,,,,,,,,,,,,,,,,,,,,,,,,,,,,,,,,,,,,
178,243,-28.81700000,32.08300000,Umhlantuzi,South Africa,Indian,3.70,3700.00,210,1300,Mountain,STr,SA,S,STr-SA-S,0.47,14.893719362,0.47,,127.03,127.03,1.1,,0.30,2340.43,,,,,,14.893719362,,,,,745.4652072462,0.201477083,,2717.0825081199,0.7343466238,,,,,,,,,,,,,,,,,,,,,,,,,,,,,,,,,,,,,,,,,,,
1151,244,-34.56988100,151.01222000,Hawkesbury,Australia,Tasman Sea,22.00,22000.00,470,>1000,Mountain,STr,SA,W,STr-SA-W,2.8,88.72854088,2.80,,127.27,127.27,1.5,,0.07,535.71,,,,,,88.72854088,,,,,6938.2923530086,0.3153769251,,16712.770244684,0.7596713748,,,,,,,,,,,,,,,,,,,,,,,,,,,,,,,,,,,,,,,,,,,
570,245,38.44466000,27.16214000,Gediz,Turkey,Mediterranean,18.00,18000.00,350,1500,Mountain,Te,SA,W,Te-SA-W,2.3,72.88415858,2.30,,127.78,127.78,1.3,,0.07,565.22,0.32,,0.0177777778, 139.13 ,,72.88415858,,,,,5425.8133680868,0.301434076,,13680.051714289,0.760002873,,,,,,,,,,,,,,,,,,,,,,,,,,,,,,,,,,,,,,,,,,,
981,246,22.34813200,-97.82236200,Tamesi,Mexico,Gulf of Mexico,18.00,18000.00,400,1200,Mountain,Tr,SA,S,Tr-SA-S,2.3,72.88415858,2.30,,127.78,127.78,,,,,,,,,,72.88415858,,,,,5425.8133680868,0.301434076,,13680.051714289,0.760002873,,,,,,,,,,,,,,,,,,,,,,,,,,,,,,,,,,,,,,,,,,,
1135,247,-13.31580000,130.11640000,Daly,Australia,Timor Sea,52.00,52000.00,360,300,Lowland,Tr,SA,S,Tr-SA-S,6.7,212.31472282,6.70,,128.85,128.85,,,,,,,,,,212.31472282,,,,,20648.9779062506,0.397095729,,40621.2819889969,0.7811784998,,,,,,,,,,,,,,,,,,,,,,,,,,,,,,,,,,,,,,,,,,,
47,248,4.89086000,-2.27704000,Ankobra,Ghana,Gulf of Guinea,6.20,6200.00,190,330,Lowland,Tr,SA,S,Tr-SA-S,0.8,25.35101168,0.80,,129.03,129.03,1.8,,0.29,2250.00,,,,,,25.35101168,,,,,1449.3308613336,0.2337630422,,4669.1008131218,0.7530807763,,,,,,,,,,,,,,,,,,,,,,,,,,,,,,,,,,,,,,,,,,,
844,249,46.05183000,30.53817000,Dniester,Ukraine,Black Sea,72.00,72000.00,1400,900,Upland,Te,SA,S,Te-SA-S,9.3,294.70551078,9.30,,129.17,129.17,0.49,3,0.01,52.69,6.1,,0.0847222222, 655.91 ,,294.70551078,,,,,31110.6254233729,0.4320920198,,56716.9746836566,0.7877357595,,,,,,,,,,,,,,,,,,,,,,,,,,,,,,,,,,,,,,,,,,,
164,250,-32.77003000,18.14071000,Groot Berg,South Africa,Atlantic,7.70,7700.00,290,1500,Mountain,Te,SA,S,Te-SA-S,1,31.6887646,1.00,,129.87,129.87,,,,,,,,,,31.6887646,,,,,1915.6010049897,0.2487793513,,5859.7547129732,0.7610071056,,,,,,,,,,,,,,,,,,,,,,,,,,,,,,,,,,,,,,,,,,,
372,251,66.74261000,68.70799600,Ob',Russia,Kara Sea,3000.00,3000000.00,5400,3700,High Mountain,Ar,SA,S,Ar-SA-S,390,12358.618194,390.00,,130.00,130.00,16,,0.01,41.03,34,,0.0113333333, 87.18 ,,12358.618194,,,,,3319982.65674595,1.1066608856,,2543101.9346204,0.8477006449,,,,,,,,,,,,,,,,,,,,,,,,,,,,,,,,,,,,,,,,,,,
1513,252,-18.17153000,-70.67659000,Zana,Peru,Pacific,2.00,2000.00,150,>4000,High Mountain,STr,SA,S,STr-SA-S,0.26,8.239078796,0.26,,130.00,130.00,,,,,,,,,,8.239078796,,,,,355.6491222444,0.1778245611,,1487.2084744118,0.7436042372,,,,,,,,,,,,,,,,,,,,,,,,,,,,,,,,,,,,,,,,,,,
954,253,18.48040000,-88.29744000,Hondo,Mexico,Atlantic,10.00,10000.00,210,>100,Lowland,Tr,SA,S,Tr-SA-S,1.3,41.19539398,1.30,,130.00,130.00,,,,,,,,,,41.19539398,,,,,2659.0974074529,0.2659097407,,7653.5710765622,0.7653571077,,,,,,,,,,,,,,,,,,,,,,,,,,,,,,,,,,,,,,,,,,,
810,254,36.78005000,-6.39484000,Guadalquivir,Spain,Atlantic,56.00,56000.00,680,>1500,Mountain,Te,SA,W,Te-SA-W,7.3,231.32798158,2.00,7.30,35.71,130.36,,,,,5.9,,0.1053571429," 2,950.00 ",,231.32798158,,,,,22985.7474856255,0.4104597765,,44327.0667075095,0.7915547626,,,,,,,,,,,,,,,,,,,,,,,,,,,,,,,,,,,,,,,,,,,
1130,255,-23.68563000,151.12196000,Calliope,Australia,Pacific,2.30,2300.00,100,300,Lowland,STr,SA,S,STr-SA-S,0.3,9.50662938,0.30,,130.43,130.43,0.2,,0.09,666.67,,,,,,9.50662938,,,,,425.3110092183,0.1849178301,,1720.4147494837,0.7480064128,,,,,,,,,,,,,,,,,,,,,,,,,,,,,,,,,,,,,,,,,,,
121,256,-17.05749000,38.83962000,Molocue,Mozambique,Indian,6.50,6500.00,350,>500,Upland,Tr,SA,S,Tr-SA-S,0.86,27.252337556,0.86,,132.31,132.31,,,,,,,,,,27.252337556,,,,,1586.4563241154,0.2440702037,,5025.7908084689,0.7731985859,,,,,,,,,,,,,,,,,,,,,,,,,,,,,,,,,,,,,,,,,,,
813,257,41.27215000,2.18185000,Llobregat,Spain,Mediterranean,5.20,5200.00,170,1700,Mountain,Te,SA,W,Te-SA-W,0.69,21.865247574,0.69,,132.69,132.69,0.07,,0.01,101.45,,,,,,21.865247574,,,,,1204.6653522316,0.2316664139,,4016.4416252539,0.7723926202,,,,,,,,,,,,,,,,,,,,,,,,,,,,,,,,,,,,,,,,,,,
12,258,-8.63843900,13.39488800,Bengo,Angola,Atlantic,9.00,9000.00,300,1400,Mountain,STr,SA,S,STr-SA-S,1.2,38.02651752,1.20,,133.33,133.33,,,,,,,,,,38.02651752,,,,,2405.9223898524,0.26732471,,7054.7111985956,0.7838567998,,,,,,,,,,,,,,,,,,,,,,,,,,,,,,,,,,,,,,,,,,,
156,259,-34.40251000,20.83561000,Breede,South Africa,Indian,15.00,15000.00,280,2300,Mountain,STr,SA,S,STr-SA-S,2,63.3775292,2.00,,133.33,133.33,,,,,,,,,,63.3775292,,,,,4556.0926892801,0.3037395126,,11865.9490215602,0.7910632681,,,,,,,,,,,,,,,,,,,,,,,,,,,,,,,,,,,,,,,,,,,
172,260,-33.73300000,25.86700000,Sondags,South Africa,Indian,15.00,15000.00,320,2400,Mountain,STr,SA,S,STr-SA-S,2,63.3775292,2.00,,133.33,133.33,,,,,,,,,,63.3775292,,,,,4556.0926892801,0.3037395126,,11865.9490215602,0.7910632681,,,,,,,,,,,,,,,,,,,,,,,,,,,,,,,,,,,,,,,,,,,
770,261,53.75544000,14.43249000,Oder,Poland,Baltic Sea,120.00,120000.00,910,1600,Mountain,SAr,SA,S,SAr-SA-S,16,507.0202336,16.00,,133.33,133.33,0.35,,0.00,21.88,8.8,,0.0733333333, 550.00 ,,507.0202336,,,,,61299.2321596687,0.5108269347,,98530.7076144534,0.8210892301,,,,,,,,,,,,,,,,,,,,,,,,,,,,,,,,,,,,,,,,,,,
403,262,71.52548000,135.40660000,Yana,Russia,Laptev Sea,240.00,240000.00,870,>3000,High Mountain,Ar,SA,S,Ar-SA-S,32,1014.0404672,32.00,,133.33,133.33,3,,0.01,93.75,1.5,,0.00625, 46.88 ,,1014.0404672,,,,,145794.966056963,0.6074790252,,199523.770341939,0.8313490431,,,,,,,,,,,,,,,,,,,,,,,,,,,,,,,,,,,,,,,,,,,
727,263,41.39282000,16.22157000,Ofanto,Italy,Mediterranean,2.70,2700.00,130,1100,Mountain,Te,SA,W,Te-SA-W,0.37,11.724842902,0.37,,137.04,137.04,0.9,,0.33,2432.43,,,,,,11.724842902,,,,,552.786223826,0.2047356385,,2129.8320660221,0.7888266911,,,,,,,,,,,,,,,,,,,,,,,,,,,,,,,,,,,,,,,,,,,
860,264,58.22135000,-94.36360000,Churchill,Canada,Hudson Bay,290.00,290000.00,1800,>200,Lowland,SAr,A,S,SAr-A-S,40,1267.550584,26.00,40.00,89.66,137.93,,,,,3.4,,0.0117241379, 130.77 ,,1267.550584,,,,,192699.259328657,0.6644802046,,250403.750187959,0.8634612075,,,,,,,,,,,,,,,,,,,,,,,,,,,,,,,,,,,,,,,,,,,
111,265,-17.66770000,37.35000000,Licungo,Mozambique,Indian,28.00,28000.00,340,2200,Mountain,Tr,A,S,Tr-A-S,3.9,123.58618194,1.20,3.90,42.86,139.29,,,,,,,,,,123.58618194,,,,,10498.7069875742,0.374953821,,23417.1020930198,0.8363250748,,,,,,,,,,,,,,,,,,,,,,,,,,,,,,,,,,,,,,,,,,,
1037,266,70.41190800,-148.86035100,Kuparuk,USA,Beaufort Sea,8.10,8100.00,250,1500,Mountain,Ar,SA,S,Ar-SA-S,1.13,35.808303998,1.13,,139.51,139.51,0.02,,0.00,17.70,,,,,,35.808303998,,,,,2231.788886236,0.2755294921,,6636.0369756597,0.8192638242,,,,,,,,,,,,,,,,,,,,,,,,,,,,,,,,,,,,,,,,,,,
480,267,18.28067000,-71.08929000,Yaque del Sur,Dominican Republic,Caribbean,5.00,5000.00,180,2700,Mountain,Tr,SA,C,Tr-SA-C,0.7,22.18213522,0.70,,140.00,140.00,,,,,,,,,,22.18213522,,,,,1226.5283931668,0.2453056786,,4075.7014177152,0.8151402835,,,,,,,,,,,,,,,,,,,,,,,,,,,,,,,,,,,,,,,,,,,
219,268,40.64135000,122.09128000,Liaohe,China,Yellow Sea,220.00,220000.00,1400,1000,Mountain,Te,A,S,Te-A-S,31,982.3517026,4.10,31.00,18.64,140.91,2.7,39,0.01,658.54,1.3,,0.0059090909, 317.07 ,,982.3517026,,,,,140122.272960684,0.6369194225,,193178.743560453,0.878085198,,,,,,,,,,,,,,,,,,,,,,,,,,,,,,,,,,,,,,,,,,,
147,269,6.91398000,-11.48131000,Mano,Sierra Leone,Atlantic,22.00,22000.00,360,>200,Lowland,Tr,H,S,Tr-H-S,3.1,98.23517026,3.10,,140.91,140.91,,,,,,,,,,98.23517026,,,,,7879.6544665395,0.3581661121,,18537.1953909846,0.8425997905,,,,,,,,,,,,,,,,,,,,,,,,,,,,,,,,,,,,,,,,,,,
1184,270,-37.84660000,148.41290000,Snowy,Australia,Tasman Sea,12.00,12000.00,430,2200,Mountain,Te,SA,S,Te-SA-S,1.7,53.87089982,1.70,,141.67,141.67,,,,,,,,,,53.87089982,,,,,3718.4864899223,0.3098738742,,10056.7330482921,0.8380610874,,,,,,,,,,,,,,,,,,,,,,,,,,,,,,,,,,,,,,,,,,,
996,271,34.09946000,-119.08619000,Calleguas,USA,Pacific,0.84,840.00,,1200,Mountain,STr,SA,W,STr-SA-W,0.12,3.802651752,0.12,,142.86,142.86,1,,1.19,8333.33,,,,,,3.802651752,,,,,135.2949585015,0.1610654268,,676.9614373975,0.8059064731,,,,,,,,,,,,,,,,,,,,,,,,,,,,,,,,,,,,,,,,,,,
1499,272,-8.17274000,-79.04224000,Moche,Peru,Pacific,2.10,2100.00,85,>3000,High Mountain,STr,SA,S,STr-SA-S,0.3,9.50662938,0.30,,142.86,142.86,,,,,,,,,,9.50662938,,,,,425.3110092183,0.202529052,,1720.4147494837,0.8192451188,,,,,,,,,,,,,,,,,,,,,,,,,,,,,,,,,,,,,,,,,,,
950,273,25.77062000,-109.43300000,El Fuerte,Mexico,Gulf of California,36.00,36000.00,560,1300,Mountain,Tr,SA,S,Tr-SA-S,5.2,164.78157592,5.20,,144.44,144.44,,,,,,,,,,164.78157592,,,,,15042.1264691639,0.4178368464,,31384.1378070453,0.8717816058,,,,,,,,,,,,,,,,,,,,,,,,,,,,,,,,,,,,,,,,,,,
1488,274,-11.95053000,-77.14336000,Chillon,Peru,Pacific,2.00,2000.00,80,>4000,High Mountain,STr,SA,S,STr-SA-S,0.29,9.189741734,0.29,,145.00,145.00,,,,,,,,,,9.189741734,,,,,407.6641803485,0.2038320902,,1662.0578224516,0.8310289112,,,,,,,,,,,,,,,,,,,,,,,,,,,,,,,,,,,,,,,,,,,
374,275,72.96445000,121.35850000,Olenyok,Russia,Laptev Sea,220.00,220000.00,2300,>500,Upland,Ar,SA,S,Ar-SA-S,32,1014.0404672,32.00,,145.45,145.45,1.1,,0.01,34.38,4.1,,0.0186363636, 128.13 ,,1014.0404672,,,,,145794.966056963,0.6627043912,,199523.770341939,0.9069262288,,,,,,,,,,,,,,,,,,,,,,,,,,,,,,,,,,,,,,,,,,,
1143,276,-14.80340000,129.60790000,Fitzmaurice,Australia,Timor Sea,11.00,11000.00,170,310,Lowland,Tr,SA,S,Tr-SA-S,1.6,50.70202336,1.60,,145.45,145.45,,,,,,,,,,50.70202336,,,,,3447.1091445819,0.3133735586,,9454.8859020274,0.859535082,,,,,,,,,,,,,,,,,,,,,,,,,,,,,,,,,,,,,,,,,,,
1035,277,69.63777000,-163.05523000,Kukpowruk,USA,Chukchi Sea,8.10,8100.00,160,11,Mountain,Ar,SA,S,Ar-SA-S,1.2,38.02651752,1.20,,148.15,148.15,,,,,,,,,,38.02651752,,,,,2405.9223898524,0.2970274555,,7054.7111985956,0.8709519998,,,,,,,,,,,,,,,,,,,,,,,,,,,,,,,,,,,,,,,,,,,
1177,278,-15.14480000,128.10800000,Pentecost,Australia,Timor Sea,29.00,29000.00,220,>1000,Mountain,Tr,SA,S,Tr-SA-S,4.3,136.26168778,4.30,,148.28,148.28,,,,,,,,,,136.26168778,,,,,11861.5276536331,0.409018195,,25864.0586241706,0.8918640905,,,,,,,,,,,,,,,,,,,,,,,,,,,,,,,,,,,,,,,,,,,
1048,279,28.96700000,-89.28300000,Mississippi,USA,Gulf of Mexico,3300.00,3300000.00,5900,3700,High Mountain,Te,SA,Sp,Te-SA-Sp,490,15527.494654,490.00,,148.48,148.48,120,400,0.04,244.90,140,,0.0424242424, 285.71 ,,15527.494654,,,,,4416214.46844423,1.3382468086,,3208272.23086174,0.9722037063,,,,,,,,,,,,,,,,,,,,,,,,,,,,,,,,,,,,,,,,,,,
1111,280,29.75000000,-94.72600000,Trinity,USA,Gulf of Mexico,46.00,46000.00,960,360,Lowland,STr,SA,Sp,STr-SA-Sp,7,221.8213522,7.00,,152.17,152.17,1.3,,0.03,185.71,1.2,,0.0260869565, 171.43 ,,221.8213522,,,,,21811.1018739662,0.4741543886,,42473.4628079005,0.923336148,,,,,,,,,,,,,,,,,,,,,,,,,,,,,,,,,,,,,,,,,,,
350,281,70.98421000,151.65951000,Indigirka,Russia,Siberian Sea,360.00,360000.00,2000,>2000,Mountain,Ar,SA,S,Ar-SA-S,55,1742.882053,55.00,,152.78,152.78,11,,0.03,200.00,1.6,,0.0044444444, 29.09 ,,1742.882053,,,,,286918.411730884,0.7969955881,,346275.099414681,0.9618752762,,,,,,,,,,,,,,,,,,,,,,,,,,,,,,,,,,,,,,,,,,,
548,282,32.81630100,35.01751400,Qishon,Israel,Mediterranean,1.10,1100.00,70,,,STr,A,W,STr-A-W,0.17,5.387089982,0.17,,154.55,154.55,,,,,,,,,,5.387089982,,,,,209.1058620445,0.1900962382,,965.0317735544,0.8773016123,,,,,,,,,,,,,,,,,,,,,,,,,,,,,,,,,,,,,,,,,,,
177,283,-29.87648000,31.06190000,Umgeni,South Africa,Indian,4.40,4400.00,230,1800,Mountain,STr,SA,S,STr-SA-S,0.68,21.548359928,0.68,,154.55,154.55,1.7,,0.39,2500.00,,,,,,21.548359928,,,,,1182.8813843004,0.2688366783,,3957.1972176698,0.899363004,,,,,,,,,,,,,,,,,,,,,,,,,,,,,,,,,,,,,,,,,,,
658,284,50.25061000,1.55576000,Somme,France,Atlantic,5.50,5500.00,240,>100,Lowland,Te,SA,W,Te-SA-W,0.85,26.93544991,0.85,,154.55,154.55,,,,,,,,,,26.93544991,,,,,1563.4309797725,0.2842601781,,4966.3106397784,0.9029655709,,,,,,,,,,,,,,,,,,,,,,,,,,,,,,,,,,,,,,,,,,,
1374,285,-2.84443000,-40.13324000,Acaraú,Brazil,Atlantic,32.00,32000.00,240,400,Lowland,Tr,H,S,Tr-H-S,5,158.443823,5.00,,156.25,156.25,,,,,,,,,,158.443823,,,,,14322.4581405871,0.4475768169,,30155.8590867357,0.9423705965,,,,,,,,,,,,,,,,,,,,,,,,,,,,,,,,,,,,,,,,,,,
175,286,-29.21719000,31.48922000,Tugela,South Africa,Indian,29.00,29000.00,400,3100,High Mountain,STr,SA,S,STr-SA-S,4.6,145.76831716,4.60,,158.62,158.62,8.8,,0.30,1913.04,,,,,,145.76831716,,,,,12904.8317240114,0.4449941974,,27701.9780187518,0.9552406213,,,,,,,,,,,,,,,,,,,,,,,,,,,,,,,,,,,,,,,,,,,
1000,287,36.54178000,-121.90253000,Carmel,USA,Pacific,0.63,630.00,55,>1000,Mountain,Te,SA,W,Te-SA-W,0.1,3.16887646,0.10,,158.73,158.73,0.6,,0.95,6000.00,,,,,,3.16887646,,,,,107.7221607682,0.1709875568,,562.2948780782,0.8925315525,,,,,,,,,,,,,,,,,,,,,,,,,,,,,,,,,,,,,,,,,,,
866,288,68.04292000,-104.00600000,Ellice,Canada,Arctic,17.00,17000.00,290,>200,Upland,Ar,SA,S,Ar-SA-S,2.7,85.55966442,2.70,,158.82,158.82,,,,,0.01,,0.0005882353, 3.70 ,,85.55966442,,,,,6629.9424928603,0.3899966172,,16105.3889075446,0.9473758181,,,,,,,,,,,,,,,,,,,,,,,,,,,,,,,,,,,,,,,,,,,
1125,289,-23.85671000,151.31682000,Boyne,Australia,Pacific,2.50,2500.00,110,670,Upland,STr,SA,S,STr-SA-S,0.4,12.67550584,0.40,,160.00,160.00,0.3,,0.12,750.00,,,,,,12.67550584,,,,,609.368562906,0.2437474252,,2305.7393424938,0.922295737,,,,,,,,,,,,,,,,,,,,,,,,,,,,,,,,,,,,,,,,,,,
1492,290,-11.09618000,-77.64344000,Huaura,Peru,Pacific,5.50,5500.00,140,4700,High Mountain,STr,SA,S,STr-SA-S,0.88,27.886112848,0.88,,160.00,160.00,,,,,,,,,,27.886112848,,,,,1632.7075326147,0.296855915,,5144.7881829322,0.9354160333,,,,,,,,,,,,,,,,,,,,,,,,,,,,,,,,,,,,,,,,,,,
662,291,53.94600000,8.77900000,Elbe,Germany,North Sea,150.00,150000.00,1100,>500,Upland,Te,SA,W,Te-SA-W,24,760.5303504,24.00,,160.00,160.00,0.84,,0.01,35.00,14,,0.0933333333, 583.33 ,,760.5303504,,,,,101758.127883927,0.6783875192,,148873.565646674,0.9924904376,,,,,,,,,,,,,,,,,,,,,,,,,,,,,,,,,,,,,,,,,,,
948,292,24.44094000,-107.55222000,Culiacan,Mexico,Gulf of California,18.00,18000.00,490,> 2600,Mountain,Tr,SA,S,Tr-SA-S,2.9,91.89741734,2.90,,161.11,161.11,1.6,,0.09,551.72,,,,,,91.89741734,,,,,7249.4081812418,0.402744899,,17320.5404104531,0.962252245,,,,,,,,,,,,,,,,,,,,,,,,,,,,,,,,,,,,,,,,,,,
112,293,-16.88706000,39.13511000,Ligonha,Mozambique,Indian,16.00,16000.00,290,>500,Upland,Tr,A,S,Tr-A-S,2.6,82.39078796,0.82,2.60,51.25,162.50,,,,,,,,,,82.39078796,,,,,6324.4351128565,0.3952771946,,15498.4105437571,0.968650659,,,,,,,,,,,,,,,,,,,,,,,,,,,,,,,,,,,,,,,,,,,
383,294,54.67622000,20.35964000,Pregolua,Russia,Baltic Sea,16.00,16000.00,190,>200,Lowland,Ar,SA,S,Ar-SA-S,2.6,82.39078796,2.60,,162.50,162.50,,,,,,,,,,82.39078796,,,,,6324.4351128565,0.3952771946,,15498.4105437571,0.968650659,,,,,,,,,,,,,,,,,,,,,,,,,,,,,,,,,,,,,,,,,,,
818,295,38.05127000,-0.53943000,Segura,Spain,Mediterranean,19.00,19000.00,340,1400,Mountain,Te,A,W,Te-A-W,3.1,98.23517026,0.80,3.10,42.11,163.16,1.1,,0.06,1375.00,,,,,,98.23517026,,,,,7879.6544665395,0.4147186561,,18537.1953909846,0.9756418627,,,,,,,,,,,,,,,,,,,,,,,,,,,,,,,,,,,,,,,,,,,
49,296,5.01496000,-1.61915000,Pra,Ghana,Gulf of Guinea,38.00,38000.00,450,550,Upland,Tr,SA,S,Tr-SA-S,6.2,196.47034052,6.20,,163.16,163.16,2.4,,0.06,387.10,,,,,,196.47034052,,,,,18741.0823107434,0.4931863766,,37537.6489778901,0.9878328678,,,,,,,,,,,,,,,,,,,,,,,,,,,,,,,,,,,,,,,,,,,
167,297,-34.02949000,23.39871000,Keurbooms,South Africa,Indian,1.10,1100.00,85,1300,Mountain,STr,SA,S,STr-SA-S,0.18,5.703977628,0.18,,163.64,163.64,0.2,,0.18,1111.11,,,,,,5.703977628,,,,,224.5927266003,0.204175206,,1022.845216793,0.929859288,,,,,,,,,,,,,,,,,,,,,,,,,,,,,,,,,,,,,,,,,,,
876,298,67.22204800,-95.29823900,Hayes,Canada,Hudson Bay,110.00,110000.00,480,>200,Lowland,Ar,SA,S,Ar-SA-S,18,570.3977628,18.00,,163.64,163.64,,,,,,,,,,570.3977628,,,,,71022.4561964363,0.6456586927,,111081.193535846,1.0098290321,,,,,,,,,,,,,,,,,,,,,,,,,,,,,,,,,,,,,,,,,,,
1066,299,33.23300000,-79.20000000,Peedee,USA,Atlantic,42.00,42000.00,570,1100,Mountain,Te,H,Sp,Te-H-Sp,6.9,218.65247574,6.90,,164.29,164.29,0.43,0.86,0.01,62.32,0.39,,0.0092857143, 56.52 ,,218.65247574,,,,,21422.3159186077,0.5100551409,,41855.9081018151,0.9965692405,,,,,,,,,,,,,,,,,,,,,,,,,,,,,,,,,,,,,,,,,,,
657,300,49.43768000,0.26325000,Seine,France,Atlantic,79.00,79000.00,780,900,Upland,Te,SA,W,Te-SA-W,13,411.9539398,13.00,,164.56,164.56,0.7,3.5,0.01,53.85,7.7,,0.0974683544, 592.31 ,,411.9539398,,,,,47286.1816896131,0.5985592619,,79758.9502153037,1.0096069648,,,,,,,,,,,,,,,,,,,,,,,,,,,,,,,,,,,,,,,,,,,
774,301,54.38888000,18.95602000,Vistula,Poland,Baltic Sea,200.00,200000.00,1100,2500,Mountain,SAr,SA,S,SAr-SA-S,33,1045.7292318,33.00,,165.00,165.00,1.8,,0.01,54.55,19,,0.095, 575.76 ,,1045.7292318,,,,,151512.156999882,0.757560785,,205872.350976471,1.0293617549,,,,,,,,,,,,,,,,,,,,,,,,,,,,,,,,,,,,,,,,,,,
1161,302,-24.53025000,152.05750000,Kolan,Australia,Pacific,3.00,3000.00,150,770,Upland,STr,SA,S,STr-SA-S,0.5,15.8443823,0.50,,166.67,166.67,0.3,,0.10,600.00,,,,,,15.8443823,,,,,805.4110090761,0.2684703364,,2893.7192662654,0.9645730888,,,,,,,,,,,,,,,,,,,,,,,,,,,,,,,,,,,,,,,,,,,
87,303,-25.16323000,46.45276000,Mandrare,Madagascar,Indian,12.00,12000.00,,1600,Mountain,Tr,SA,S,Tr-SA-S,2,63.3775292,2.00,,166.67,166.67,,,,,,,,,,63.3775292,,,,,4556.0926892801,0.3796743908,,11865.9490215602,0.9888290851,,,,,,,,,,,,,,,,,,,,,,,,,,,,,,,,,,,,,,,,,,,
932,304,20.70044000,-105.27217000,Ameca,Mexico,Pacific,12.00,12000.00,200,2600,Mountain,Tr,SA,S,Tr-SA-S,2,63.3775292,2.00,,166.67,166.67,4.2,,0.35,2100.00,0.56,,0.0466666667, 280.00 ,,63.3775292,,,,,4556.0926892801,0.3796743908,,11865.9490215602,0.9888290851,,,,,,,,,,,,,,,,,,,,,,,,,,,,,,,,,,,,,,,,,,,
751,305,57.08523000,23.73737000,Lielupe,Latvia,Baltic Sea,18.00,18000.00,310,<100,Coastal Plain,SAr,H,S,SAr-H-S,3,95.0662938,3.00,,166.67,166.67,,,,,0.98,,0.0544444444, 326.67 ,,95.0662938,,,,,7563.2181055577,0.4201787836,,17928.6862277867,0.9960381238,,,,,,,,,,,,,,,,,,,,,,,,,,,,,,,,,,,,,,,,,,,
1169,306,-15.23440000,141.46130000,Mitchell,Australia,Gulf of Carpentaria,72.00,72000.00,560,300,Lowland,Tr,H,S,Tr-H-S,12,380.2651752,12.00,,166.67,166.67,0.43,,0.01,35.83,2.1,,0.0291666667, 175.00 ,,380.2651752,,,,,42784.0224802615,0.5942225344,,73518.1464499936,1.0210853674,,,,,,,,,,,,,,,,,,,,,,,,,,,,,,,,,,,,,,,,,,,
1196,307,-12.24492200,131.86610300,Wildman,Australia,Timor Sea,4.80,4800.00,110,<100,Coastal Plain,Tr,SA,S,Tr-SA-S,0.8,25.35101168,0.80,,166.67,166.67,0.3,,0.06,375.00,,,,,,25.35101168,,,,,1449.3308613336,0.3019439294,,4669.1008131218,0.9727293361,,,,,,,,,,,,,,,,,,,,,,,,,,,,,,,,,,,,,,,,,,,
181,308,-29.38070000,31.33669000,Umvoti,South Africa,Indian,2.80,2800.00,200,1500,Mountain,STr,SA,S,STr-SA-S,0.47,14.893719362,0.47,,167.86,167.86,0.81,,0.29,1723.40,,,,,,14.893719362,,,,,745.4652072462,0.266237574,,2717.0825081199,0.97038661,,,,,,,,,,,,,,,,,,,,,,,,,,,,,,,,,,,,,,,,,,,
57,309,5.28028000,-4.32910000,Agneby,Ivory Coast,Gulf of Guinea,8.90,8900.00,210,<100,Coastal Plain,Tr,SA,S,Tr-SA-S,1.5,47.5331469,1.50,,168.54,168.54,1.5,,0.17,1000.00,,,,,,47.5331469,,,,,3179.9414963727,0.3572967973,,8853.7127059793,0.9947991804,,,,,,,,,,,,,,,,,,,,,,,,,,,,,,,,,,,,,,,,,,,
192,310,6.25652000,1.80551000,Mono,Togo,Gulf of Guinea,29.00,29000.00,500,420,Lowland,Tr,SA,W,Tr-SA-W,4.9,155.27494654,4.90,,168.97,168.97,1.6,,0.06,326.53,,,,,,155.27494654,,,,,13965.2963560736,0.4815619433,,29542.047587449,1.0186912961,,,,,,,,,,,,,,,,,,,,,,,,,,,,,,,,,,,,,,,,,,,
603,311,43.02568000,27.89007000,Kamchea,Bulgaria,Black Sea,5.30,5300.00,165,>500,Upland,Te,SA,W,Te-SA-W,0.9,28.51988814,0.30,0.90,56.60,169.81,0.46,1.1,0.09,1533.33,,,,,,28.51988814,,,,,1679.2222999644,0.3168343962,,5263.8340230968,0.9931762308,,,,,,,,,,,,,,,,,,,,,,,,,,,,,,,,,,,,,,,,,,,
342,312,72.59721000,114.06530000,Anabar,Russia,Laptev Sea,100.00,100000.00,940,>500,Upland,Ar,SA,S,Ar-SA-S,17,538.7089982,17.00,,170.00,170.00,0.4,,0.00,23.53,0.87,,0.0087, 51.18 ,,538.7089982,,,,,66125.0796153666,0.6612507962,,104802.642126586,1.0480264213,,,,,,,,,,,,,,,,,,,,,,,,,,,,,,,,,,,,,,,,,,,
1398,313,-3.37368000,-44.80477000,Mearim,Brazil,Atlantic,100.00,100000.00,570,>200,Lowland,Tr,H,S,Tr-H-S,17,538.7089982,17.00,,170.00,170.00,0.7,,0.01,41.18,,,,,,538.7089982,,,,,66125.0796153666,0.6612507962,,104802.642126586,1.0480264213,,,,,,,,,,,,,,,,,,,,,,,,,,,,,,,,,,,,,,,,,,,
854,314,66.62749000,-95.77250000,Back,Canada,Arctic,94.00,94000.00,970,>200,Lowland,Ar,SA,S,Ar-SA-S,16,507.0202336,16.00,,170.21,170.21,,,,,0.18,,0.0019148936, 11.25 ,,507.0202336,,,,,61299.2321596687,0.6521194911,,98530.7076144534,1.0481990172,,,,,,,,,,,,,,,,,,,,,,,,,,,,,,,,,,,,,,,,,,,
1497,315,-16.64675000,-72.75638000,Majes,Peru,Pacific,17.00,17000.00,400,5000,High Mountain,STr,SA,S,STr-SA-S,2.9,91.89741734,2.90,,170.59,170.59,,,,,,,,,,91.89741734,,,,,7249.4081812418,0.4264357754,,17320.5404104531,1.0188553183,,,,,,,,,,,,,,,,,,,,,,,,,,,,,,,,,,,,,,,,,,,
396,316,49.22245000,140.34882000,Tumnin,Russia,Sea of Japan,24.00,24000.00,320,>1000,Mountain,Ar,H,S,Ar-H-S,4.1,129.92393486,4.10,,170.83,170.83,,,,,,,,,,129.92393486,,,,,11175.9609880467,0.4656650412,,24640.0455387549,1.0266685641,,,,,,,,,,,,,,,,,,,,,,,,,,,,,,,,,,,,,,,,,,,
1486,317,-6.83539000,-79.95558000,Chancay,Peru,Pacific,5.20,5200.00,100,>2000,Mountain,STr,SA,S,STr-SA-S,0.89,28.203000494,0.89,,171.15,171.15,,,,,,,,,,28.203000494,,,,,1655.9322508449,0.3184485098,,5204.3051120383,1.0008279062,,,,,,,,,,,,,,,,,,,,,,,,,,,,,,,,,,,,,,,,,,,
891,318,68.69007000,-134.23800000,MacKenzie,Canada,Beaufort Sea,1800.00,1800000.00,4200,3600,High Mountain,SAr,SA,S,SAr-SA-S,310,9823.517026,310.00,,172.22,172.22,100,,0.06,322.58,64,,0.0355555556, 206.45 ,,9823.517026,,,,,2491765.52893838,1.3843141827,,2013143.09832136,1.1184128324,,,,,,,,,,,,,,,,,,,,,,,,,,,,,,,,,,,,,,,,,,,
497,319,13.14763000,-87.43730000,Choluteca,Honduras,Pacific,6.30,6300.00,280,>1000,Mountain,Tr,SA,Au,Tr-SA-Au,1.1,34.85764106,1.10,,174.60,174.60,,,,,,,,,,34.85764106,,,,,2157.9725332372,0.3425353227,,6456.7457437332,1.0248802768,,,,,,,,,,,,,,,,,,,,,,,,,,,,,,,,,,,,,,,,,,,
1305,320,-46.13323000,170.23820000,Taieri,New Zealand,Pacific,5.70,5700.00,200,>1000,Mountain,Te,SA,C,Te-SA-C,1,31.6887646,1.00,,175.44,175.44,0.32,,0.06,320.00,,,,,,31.6887646,,,,,1915.6010049897,0.3360703518,,5859.7547129732,1.0280271426,,,,,,,,,,,,,,,,,,,,,,,,,,,,,,,,,,,,,,,,,,,
1452,321,11.57505000,-72.89440000,Rancheria,Colombia,Caribbean,2.20,2200.00,170,>1500,Mountain,Tr,SA,S,Tr-SA-S,0.39,12.358618194,0.39,,177.27,177.27,0.1,,0.05,256.41,,,,,,12.358618194,,,,,590.3856800178,0.2683571273,,2247.0764070018,1.0213983668,,,,,,,,,,,,,,,,,,,,,,,,,,,,,,,,,,,,,,,,,,,
1519,322,-33.23310000,-53.67900000,Cebollati,Uruguay,Atlantic,18.00,18000.00,210,>100,Lowland,Te,H,W,Te-H-W,3.2,101.40404672,3.20,,177.78,177.78,,,,,,,,,,101.40404672,,,,,8198.6534418555,0.4554807468,,19146.0563818039,1.063669799,,,,,,,,,,,,,,,,,,,,,,,,,,,,,,,,,,,,,,,,,,,
282,323,35.07505000,138.65730000,Fuji,Japan,Pacific,3.90,3900.00,130,3800,High Mountain,STr,H,S,STr-H-S,0.7,22.18213522,0.70,,179.49,179.49,,,,,,,,,,22.18213522,,,,,1226.5283931668,0.3144944598,,4075.7014177152,1.0450516456,,,,,,,,,,,,,,,,,,,,,,,,,,,,,,,,,,,,,,,,,,,
1122,324,-24.09298000,151.67359000,Baffle Creek,Australia,Pacific,3.90,3900.00,100,770,Upland,STr,SA,S,STr-SA-S,0.7,22.18213522,0.70,,179.49,179.49,0.4,,0.10,571.43,,,,,,22.18213522,,,,,1226.5283931668,0.3144944598,,4075.7014177152,1.0450516456,,,,,,,,,,,,,,,,,,,,,,,,,,,,,,,,,,,,,,,,,,,
375,325,71.21442000,132.18457000,Omoloy,Russia,Laptev Sea,39.00,39000.00,1600,>1500,Mountain,Ar,SA,S,Ar-SA-S,7,221.8213522,7.00,,179.49,179.49,0.04,,0.00,5.71,,,,,,221.8213522,,,,,21811.1018739662,0.5592590224,,42473.4628079005,1.0890631489,,,,,,,,,,,,,,,,,,,,,,,,,,,,,,,,,,,,,,,,,,,
1409,326,-12.60193000,-38.02793000,Pojuca,Brazil,Atlantic,5.00,5000.00,,>100,Lowland,Tr,SA,S,Tr-SA-S,0.9,28.51988814,0.90,,180.00,180.00,,,,,,,,,,28.51988814,,,,,1679.2222999644,0.33584446,,5263.8340230968,1.0527668046,,,,,,,,,,,,,,,,,,,,,,,,,,,,,,,,,,,,,,,,,,,
692,327,65.53543000,-20.37784000,Vatnsdalsa,Iceland,Arctic,1.50,1500.00,70,>500,Upland,SAr,W,S,SAr-W-S,0.27,8.555966442,0.27,,180.00,180.00,,,,,,,,,,8.555966442,,,,,372.8290647371,0.2485527098,,1545.453374033,1.0303022494,,,,,,,,,,,,,,,,,,,,,,,,,,,,,,,,,,,,,,,,,,,
615,328,52.82253000,0.20929000,Nene,England,North Sea,1.60,1600.00,140,120,Lowland,Te,SA,W,Te-SA-W,0.29,9.189741734,0.29,,181.25,181.25,0.016,,0.01,55.17,,,,,,9.189741734,,,,,407.6641803485,0.2547901127,,1662.0578224516,1.038786139,,,,,,,,,,,,,,,,,,,,,,,,,,,,,,,,,,,,,,,,,,,
1165,329,-30.81390000,153.09790000,Macleay,Australia,Tasman Sea,11.00,11000.00,400,1600,Mountain,STr,SA,S,STr-SA-S,2,63.3775292,2.00,,181.82,181.82,0.1,1.7,0.01,50.00,,,,,,63.3775292,,,,,4556.0926892801,0.4141902445,,11865.9490215602,1.0787226383,,,,,,,,,,,,,,,,,,,,,,,,,,,,,,,,,,,,,,,,,,,
358,330,68.55229000,160.76109000,Kolyma,Russia,Siberian Sea,660.00,660000.00,2100,2600,Mountain,Ar,A,S,Ar-A-S,120,3802.651752,120.00,,181.82,181.82,10,,0.02,83.33,10,,0.0151515152, 83.33 ,,3802.651752,,,,,760819.462552914,1.1527567614,,766143.036233529,1.1608227822,,,,,,,,,,,,,,,,,,,,,,,,,,,,,,,,,,,,,,,,,,,
1466,331,-0.78915000,-80.53121000,Portoviejo,Ecuador,Pacific,2.20,2200.00,,>200,Lowland,Tr,SA,S,Tr-SA-S,0.4,12.67550584,0.40,,181.82,181.82,,,,,,,,,,12.67550584,,,,,609.368562906,0.2769857104,,2305.7393424938,1.0480633375,,,,,,,,,,,,,,,,,,,,,,,,,,,,,,,,,,,,,,,,,,,
908,332,64.19241000,-93.77500000,Quoich,Canada,Hudson Bay,29.00,29000.00,,>200,Lowland,Ar,A,S,Ar-A-S,5.3,167.95045238,5.30,,182.76,182.76,,,,,0.03,,0.0010344828, 5.66 ,,167.95045238,,,,,15404.581109385,0.531192452,,31998.596714697,1.1033998867,,,,,,,,,,,,,,,,,,,,,,,,,,,,,,,,,,,,,,,,,,,
22,333,-8.46914000,13.36224000,Dande,Angola,Atlantic,8.20,8200.00,290,1300,Mountain,STr,A,S,STr-A-S,1.5,47.5331469,1.50,,182.93,182.93,,,,,,,,,,47.5331469,,,,,3179.9414963727,0.3877977435,,8853.7127059793,1.0797210617,,,,,,,,,,,,,,,,,,,,,,,,,,,,,,,,,,,,,,,,,,,
545,334,29.96306000,48.54556000,Shatt el Arab,Iraq,Persian Gulf,420.00,420000.00,2500,>2500,Mountain,Te,A,W,Te-A-W,77,2440.0348742,46.00,77.00,109.52,183.33,,100,,,18,,0.0428571429, 391.30 ,,2440.0348742,,,,,436936.637995465,1.0403253286,,487716.251557918,1.1612291704,,,,,,,,,,,,,,,,,,,,,,,,,,,,,,,,,,,,,,,,,,,
926,335,64.15318000,-96.11040000,Thelon,Canada,Hudson Bay,240.00,240000.00,900,>200,Lowland,Ar,SA,S,Ar-SA-S,44,1394.3056424,44.00,,183.33,183.33,,,,,1.1,,0.0045833333, 25.00 ,,1394.3056424,,,,,217080.544290402,0.9045022679,,275914.850951259,1.1496452123,,,,,,,,,,,,,,,,,,,,,,,,,,,,,,,,,,,,,,,,,,,
341,336,53.10997000,140.70681000,Amur,Russia,Sea of Okhotsk,1900.00,1900000.00,4400,>2000,Mountain,Ar,SA,S,Ar-SA-S,350,11091.06761,350.00,,184.21,184.21,52,,0.03,148.57,26,,0.0136842105, 74.29 ,,11091.06761,,,,,2899947.34010408,1.5262880737,,2277850.66038358,1.1988687686,,,,,,,,,,,,,,,,,,,,,,,,,,,,,,,,,,,,,,,,,,,
1392,337,-11.75001000,-37.51098000,Itapicuru,Brazil,Atlantic,43.00,43000.00,400,>500,Upland,Tr,SA,S,Tr-SA-S,8,253.5101168,8.00,,186.05,186.05,0.01,,0.00,1.25,,,,,,253.5101168,,,,,25773.1522904353,0.5993756347,,48657.3621096226,1.1315665607,,,,,,,,,,,,,,,,,,,,,,,,,,,,,,,,,,,,,,,,,,,
1365,338,-39.85900000,-62.13800000,Colorado,Argentina,Atlantic,22.00,22000.00,1000,>3000,High Mountain,Te,A,Sp,Te-A-Sp,4.1,129.92393486,4.10,,186.36,186.36,6.9,,0.31,1682.93,3,,0.1363636364, 731.71 ,,129.92393486,,,,,11175.9609880467,0.5079982267,,24640.0455387549,1.1200020699,,,,,,,,,,,,,,,,,,,,,,,,,,,,,,,,,,,,,,,,,,,
621,339,51.49821000,0.57138000,Thames,England,North Sea,15.00,15000.00,350,330,Lowland,Te,SA,W,Te-SA-W,2.8,88.72854088,2.80,,186.67,186.67,0.04,,0.00,14.29,0.82,,0.0546666667, 292.86 ,,88.72854088,,,,,6938.2923530086,0.4625528235,,16712.770244684,1.114184683,,,,,,,,,,,,,,,,,,,,,,,,,,,,,,,,,,,,,,,,,,,
842,340,58.41600000,16.71600000,Vättern-Motalastrom,Sweden,Baltic Sea,15.00,15000.00,100,>100,Lowland,SAr,H,S,SAr-H-S,2.8,88.72854088,2.80,,186.67,186.67,,,,,,,,,,88.72854088,,,,,6938.2923530086,0.4625528235,,16712.770244684,1.114184683,,,,,,,,,,,,,,,,,,,,,,,,,,,,,,,,,,,,,,,,,,,
659,341,42.72350000,3.03412000,Tet,France,Mediterranean,1.60,1600.00,120,2400,Mountain,Te,H,W,Te-H-W,0.3,9.50662938,0.30,,187.50,187.50,0.5,,0.31,1666.67,,,,,,9.50662938,,,,,425.3110092183,0.2658193808,,1720.4147494837,1.0752592184,,,,,,,,,,,,,,,,,,,,,,,,,,,,,,,,,,,,,,,,,,,
406,342,8.81535000,79.92653000,Aruvi Aru,Sri Lanka,Indian,3.20,3200.00,160,>500,Upland,Tr,SA,Au,Tr-SA-Au,0.6,19.01325876,0.60,,187.50,187.50,,,,,,,,,,19.01325876,,,,,1011.5657565028,0.3161142989,,3483.8239334691,1.0886949792,,,,,,,,,,,,,,,,,,,,,,,,,,,,,,,,,,,,,,,,,,,
441,343,13.51700000,100.61700000,Chao Phraya,Thailand,Gulf of Thailand,160.00,160000.00,1200,>1000,Mountain,Tr,H,S,Tr-H-S,30,950.662938,30.00,,187.50,187.50,3,30,0.02,100.00,5.3,,0.033125, 176.67 ,,950.662938,,,,,134495.150307468,0.8405946894,,186837.383224532,1.1677336452,,,,,,,,,,,,,,,,,,,,,,,,,,,,,,,,,,,,,,,,,,,
1407,344,-3.29391000,-44.85547000,Pindaré,Brazil,Atlantic,34.00,34000.00,460,800,Upland,Tr,H,S,Tr-H-S,6.4,202.80809344,6.40,,188.24,188.24,,,,,,,,,,202.80809344,,,,,19499.7940129921,0.5735233533,,38770.5868451157,1.1403113778,,,,,,,,,,,,,,,,,,,,,,,,,,,,,,,,,,,,,,,,,,,
1503,345,-13.68562000,-76.22277000,Pisco,Peru,Pacific,4.40,4400.00,240,>4000,High Mountain,STr,SA,S,STr-SA-S,0.83,26.301674618,0.83,,188.64,188.64,,,,,,,,,,26.301674618,,,,,1517.5837644113,0.344905401,,4847.3880554544,1.1016791035,,,,,,,,,,,,,,,,,,,,,,,,,,,,,,,,,,,,,,,,,,,
90,346,-25.28086000,44.50587000,Menarandra,Madagascar,Indian,5.30,5300.00,,,,Tr,SA,S,Tr-SA-S,1,31.6887646,1.00,,188.68,188.68,,,,,,,,,,31.6887646,,,,,1915.6010049897,0.3614341519,,5859.7547129732,1.1056140968,,,,,,,,,,,,,,,,,,,,,,,,,,,,,,,,,,,,,,,,,,,
150,347,7.42246000,-12.46355000,Sewa,Sierra Leone,Atlantic,19.00,19000.00,380,490,Lowland,Tr,W,S,Tr-W-S,3.6,114.07955256,3.60,,189.47,189.47,,,,,,,,,,114.07955256,,,,,9499.1158033959,0.4999534633,,21584.8119422558,1.1360427338,,,,,,,,,,,,,,,,,,,,,,,,,,,,,,,,,,,,,,,,,,,
928,348,67.71010800,-112.56962800,Tree,Canada,Arctic,5.80,5800.00,,500,Upland,Ar,SA,S,Ar-SA-S,1.1,34.85764106,1.10,,189.66,189.66,,,,,,,,,,34.85764106,,,,,2157.9725332372,0.3720642299,,6456.7457437332,1.1132320248,,,,,,,,,,,,,,,,,,,,,,,,,,,,,,,,,,,,,,,,,,,
738,349,37.39897000,15.11593000,Simeto,Italy,Ionian Sea,4.20,4200.00,110,1700,Mountain,Te,H,W,Te-H-W,0.8,25.35101168,0.80,,190.48,190.48,1,3.5,0.24,1250.00,,,,,,25.35101168,,,,,1449.3308613336,0.3450787765,,4669.1008131218,1.1116906698,,,,,,,,,,,,,,,,,,,,,,,,,,,,,,,,,,,,,,,,,,,
577,350,40.42340600,28.48229800,Kocaçay,Turkey,Sea of Marmara,23.00,23000.00,,>1000,Mountain,Te,SA,W,Te-SA-W,4.4,139.43056424,4.40,,191.30,191.30,,,,,1.2,,0.052173913, 272.73 ,,139.43056424,,,,,12207.3360949307,0.5307537433,,26476.4508200526,1.1511500357,,,,,,,,,,,,,,,,,,,,,,,,,,,,,,,,,,,,,,,,,,,
